id,lat,lon,name,street,postcode,brand
20849687,51.4110074,-0.3340174,Unknown,,,
25475389,51.5265807,-0.1292505,Woburn Cafe,,,
25497832,51.5247641,-0.1161125,Cafe Angel,,,
25991205,51.5509046,-0.0724776,Jack's Cafe,Shacklewell Lane,E8 2EZ,
26269218,51.5691513,-0.0598633,Springfield Park Cafe,Springfield,E5 9EF,
30062730,51.4400001,-0.1051929,Perks and White,Station Rise,SE27 9BW,
36684383,51.5520625,-0.3504501,Café Express,Oldfields Circus,UB5 4RR,
45273242,51.5937738,0.2342052,Station Cafe,,,
60030740,51.4686299,-0.3275195,Greedies,South Street,TW7 7AA,
130210673,51.5046688,-0.1696555,The Serpentine Lido Cafe,,,
140681851,51.4989916,-0.1354995,Starbucks,Palmer Street,SW1H 0AD,Starbucks
169436940,51.4987752,-0.1412257,Buckingham Coffee Lounge,Palace Street,SW1E 5HS,
207145668,51.4781383,-0.2909155,Victoria Plaza café,Kew Road,TW9 3AB,
244056695,51.5246924,-0.0752813,Beans & Beyond,Old Nichol Street,E2 7HR,
246880765,51.3602342,-0.1332936,Mellows Pavilion Cafe,Stafford Road,SM6 9BU,
248042426,51.3533278,-0.1328371,Beehive Café,Mollison Drive,SM6 9NZ,
248231088,51.5620412,-0.1496786,Kalendar,,,
249314702,51.5042616,-0.0612495,Turk's Head Cafe,Green Bank,E1W 2PA,
249856001,51.4809488,-0.418779,Starbucks,Bath Road,TW6 2AA,Starbucks
253369107,51.3661855,-0.1602984,Unknown,,,
255006105,51.5786546,-0.1240474,Starbucks,The Broadway,N8 8DU,Starbucks
256497884,51.5134807,-0.1165232,The Garrick,Aldwych,WC2B 4RR,
258016397,51.3549448,-0.1623963,Millers Kitchen,Stanley Park Road,SM5 3JG,
262083093,51.4527114,-0.2553944,Colicci Roehampton Gate,,SW15 5JR,
264524115,51.5044528,-0.0784709,Caffe Nomma Italian,,,
264625038,51.5270245,-0.0837537,Neds Noodle Bar,Pitfield Street,N1 6HB,
266527270,51.447244,-0.4561813,The Orchard Cafe,Staines Road,TW14 8RU,
267406074,51.5059312,-0.1171709,Riverside Terrace Cafe,,SE1 8XX,
270201257,51.3355447,-0.17028,Oaks Park Cafe,Croydon Lane,SM7 3BA,
273217489,51.496539,-0.1354705,City Brunch,,,
273217510,51.4964968,-0.1357931,Cafe Nuvo,Artillery Row,SW1P 1RZ,
273933958,51.489,-0.1920131,Costa,Old Brompton Road,SW5 9HR,Costa
273933965,51.4899869,-0.190421,Caffè du Coin,Earl's Court Road,,
276757485,51.4931224,-0.1444353,Treat's,,,
278523677,51.4424027,-0.294468,Pembroke Lodge,,TW10 5HX,
279051551,51.3846322,-0.1739087,George's Cafe,Green Wrythe Lane,SM5 1JF,
279249388,51.5154204,-0.0603671,Cafe Donatella,Nelson Street,E1 2DL,
281851003,51.525503,-0.1538118,The Tennis Centre,,,
282117011,51.4804805,-0.1589365,Tea Terrace,,,
286493172,51.4991305,-0.0736417,Archway Cafe,,,
287453553,51.5005539,-0.0914286,Twists Sandwich Bar,,,
288598377,51.4994799,-0.264467,Sparrow Cafe,,,
289807081,51.4363873,-0.1044291,Chocolate & Champagne,Norwood Road,SE27 9DJ,
291969070,51.5513745,-0.0555368,Black Cat Cafe,Clarence Road,E5 8HB,
292011536,51.4548973,-0.1193419,Café on the Hill,Brixton Hill,SW2 1AA,
292011982,51.4547019,-0.1199703,Café Tana,Brixton Hill,SW2 1QN,
292387300,51.4973427,-0.1295433,Wash House,,,
293653254,51.5920863,-0.1374227,The Grove Café,Alexandra Palace Way,N22 7BA,
295971749,51.507446,-0.1227884,Starbucks,,,Starbucks
298288056,51.3923739,-0.3044196,Nero Express,Victoria Road,KT6 4PE,Caffè Nero
299444032,51.5363861,-0.1037828,Caffè Nero,Upper Street,N1 0NU,Caffè Nero
299596361,51.5375804,-0.0998346,Dolce Coffee,,,
300425855,51.491428,-0.1801198,Gloucester Road Cafe,Gloucester Road,,
300435152,51.4583633,-0.1486927,Pear Tree Cafe,,,
304194140,51.4107696,-0.0254616,Unknown,,,
304362696,51.532967,-0.2463565,Sabor Mineiro,Station Road,NW10 4UX,
304651243,51.534367,-0.2644694,Pasta Cafe,,,
304687805,51.5412726,-0.2776857,Ace Cafe,"North Circular Road, Stonebridge",NW10 7UD,
304696372,51.5341765,-0.2617001,Jack's Cabin Cafe,,,
306036143,51.5369333,-0.0962864,Saponara,,,
306664578,51.5009039,-0.1037432,Caffe Deniro,Webber Street,,
307103271,51.5012746,-0.1049059,Masters,Blackfriars Road,,
308066480,51.3988936,-0.0426709,Sunrise Cafe,Croydon Road,BR3 3RA,
308839176,51.5322618,-0.1064336,Starbucks,,,Starbucks
308839732,51.5283695,-0.0916174,The Shepherdess,City Road,EC1V 1JN,
311877305,51.5140415,-0.1256046,Costa,,,Costa
313100914,51.5099573,-0.1979637,Taxi Driver's Cafe,,,
313913802,51.4966438,-0.1335105,Caffé Pronto Grill Bar,Sutton Ground,SW1P 2HY,
318696718,51.5550326,0.009934,Tres Marias,Cann Hall Road,E11 3NH,
322270232,51.5719537,-0.3385104,The Doll's House on the Hill,High Street,HA1 3LL,
322270261,51.5714911,-0.3388506,Battels,High Street,HA1 3LL,
322970462,51.4842429,-0.0933809,Cafe Silam,Westmoreland Road,SE17 2AY,
330591003,51.5823256,-0.1498519,Pavillion Cafe,,,
331362116,51.590466,-0.1037287,Costa,Green Lanes,N8 0QY,Costa
331880922,51.5465143,-0.1035031,Amici,Highbury Corner,N5 1RD,
331925869,51.571476,-0.16715,The Steward's Room,,,
332117592,51.5277186,-0.1262783,Sandwich Street Kitchen,,,
333167315,51.5409182,-0.116985,Tocca,,,
333167385,51.5422743,-0.1174779,La Primavera,,,
333185603,51.5436684,-0.1176996,La Café Delight,Caledonian Road,N7 9DQ,
333185671,51.5449526,-0.117926,The Breakout,,,
333782546,51.5350112,0.0517843,Unknown,,,
333782850,51.5345549,0.0534637,Costa,High Street North,E6 2HJ,Costa
334507024,51.5236963,-0.08411,Basement Cafe,,,
334631073,51.525232,-0.1216222,Unknown,,,
336053293,51.532949,-0.1112097,Cafe Olive,Penton Street,,
336347045,51.5532287,-0.1045938,Wagon Cafe,Drayton Park,N5 1ND,
336373816,51.5539551,-0.1105932,Little Wonder Cafe,Hornsey Road,N7 7BP,
336412550,51.5514471,-0.09959,Oasis in the Park,,,
338505172,51.5156884,-0.111853,Costa,,,Costa
338507313,51.5178134,-0.1193869,Caffè Nero,High Holborn,WC1V 6QL,Caffè Nero
338507320,51.5175712,-0.1200835,Costa,High Holborn,WC1V 7DZ,Costa
338507461,51.5160246,-0.1190342,Guido's,Kingsway,,
338507462,51.516089,-0.119735,Caffè Nero,Kingsway,WC2B 6SR,Caffè Nero
338507482,51.51825,-0.120913,Espresso House,,,
339863099,51.5462673,-0.1011388,Sawyer & Gray,St Paul's Road,N1 2LH,
340130640,51.5338257,0.0597155,Friendly Cafe,Barking Road,E6 2LN,
343588074,51.5655171,-0.1077767,Gadz,,,
343588092,51.5657342,-0.1067122,The Arch Cafe,,,
344791685,51.5613167,-0.1124838,One Way Cafe,,,
344868976,51.4775336,-0.2104769,Olive,,,
344871610,51.4786408,-0.2113074,Cafe Plum,,,
344875222,51.5560511,-0.0982362,One root bakery,,,
345529554,51.3313237,0.0535218,Down House Tearoom,Luxted Road,BR6 7JT,
345873723,51.4957701,-0.1152559,The Corner Cafe,,,
347542399,51.5181847,-0.0776879,Jen Tea,Artillery Passage,E1 7LJ,
348116247,51.5479589,-0.1064898,BBH,,,
348116254,51.5482419,-0.1069032,The Hope,Holloway Road,N7 8LT,
348116257,51.5481202,-0.1067398,Vagabond N7,Holloway Road,,
348713913,51.5344524,-0.1053506,Ding Tea,,,Ding Tea
348871686,51.5114642,-0.1327974,Caffè Concerto,Shaftesbury Avenue,,
352933507,51.5395529,-0.1018052,Chameleon,Cross Street,,
353912647,51.567772,-0.1224501,Deti's Deli Cafe,,,
353912652,51.5672097,-0.1223257,Hamlet Cafe,Hornsey Road,,
355199574,51.549276,-0.1082337,Morsi & Co.,,,
356989639,51.5229959,0.0224192,Vongs Kitchen,Balaam Street,E13 8EB,
356990299,51.5222927,0.0219961,Britannia,Barking Road,E13 8EE,
360309846,51.5465873,-0.1042104,Temptations,Highbury Corner,N5 1RA,
362315101,51.549446,-0.108437,Master Chef Cafe,,,
362359480,51.5500543,-0.1078,Le Péché Mignon,Ronalds Road,N5 1XH,
364548403,51.5462478,-0.1023635,314,,,
364783971,51.5459051,-0.1019576,Cafe Vertige,Canonbury Road,N1 2UP,
364783976,51.5460255,-0.1016413,Urban Café and Bistro,,,
366238747,51.6193912,-0.1617116,Unknown,,,
369119283,51.5147588,-0.0790785,Chaplins Deli,,,
369119293,51.5134548,-0.0798417,Caffè Nero,Leadenhall Street,EC3A 3BP,Caffè Nero
369859307,51.5654055,-0.0728654,Stop Over,Station Approach,,
369879091,51.5623969,-0.0733518,Leo's Cafe,Stoke Newington High Street,N16 7JD,
369879099,51.5620251,-0.073451,Moio,Stoke Newington High Street,N16 7JD,
369879710,51.5615071,-0.0735622,The Haberdashery,Stoke Newington High Street,N16 7JL,
369975055,51.5595994,-0.073915,Coffee Break & Restaurant,Stoke Newington High Street,N16 7NY,
371050202,51.5149955,-0.1240197,The Poetry Cafe,,,
372519553,51.5134023,-0.1312004,Bar Italia,Frith Street,,
374318072,51.5620603,-0.0754513,Banh Mi Etc,Stoke Newington Church Street,N16 0NX,
376836425,51.4445927,-0.3403162,Liv's Telecafe,The Green,,
379033843,51.5261978,-0.0879786,Starbucks,,,Starbucks
379822516,51.476668,-0.13046,Ponto de Encontro,Wandsworth Road,SW8 2LA,
379822519,51.476732,-0.13042,Berlengas,,,
379822542,51.4746123,-0.1324402,Chinese Pantry,Wandsworth Road,SW8 2JJ,
379822556,51.4740661,-0.1330385,Unknown,,,
379822559,51.471749,-0.135588,Os Golfinhos,,,
379822581,51.4706364,-0.1382787,Solneve Cafe,,,
379822583,51.4708182,-0.1382967,Savoy Cafe,,,
379822588,51.4704996,-0.1390395,Uncle Tom's Cabin,Wandsworth Road,SW8 4PH,
385417913,51.5574006,-0.098027,Cafe N5,Highbury Park,,
385417915,51.5573451,-0.0979895,Franks,Highbury Park,,
385560825,51.4980972,-0.1444736,English Rose,,,
385560831,51.4990311,-0.1428822,Le Signore,Palace Street,SW1E 5HY,
385560837,51.4949639,-0.1270355,Ravello,Horseferry Road,SW1P 2AF,
388111146,51.5252013,-0.1281271,Starbucks,Tavistock Square,WC1H 9LT,Starbucks
388116719,51.516674,-0.129274,Starbucks,,,Starbucks
389031673,51.4075972,-0.0276522,Caffè Nero,High Street,BR3 1EW,Caffè Nero
389031691,51.4066465,-0.0287369,Costa,High Street,BR3 1EN,Costa
389899516,51.5635438,-0.1280524,The Battenberg Badger,Holloway Road,,
389899598,51.5580251,-0.1319987,flavours,,,
389942149,51.5539633,-0.1135166,Café Euro,,,
390073204,51.5195292,-0.093295,Barbican Kitchen,Silk Street,EC2Y 8DS,
390556692,51.5348494,-0.0986195,Rheidol Rooms,,,
392032824,51.5478543,-0.1911448,Costa,West End Lane,NW6 2LJ,Costa
392032917,51.5478058,-0.1911542,Starbucks,,,Starbucks
392672511,51.5702682,-0.1145975,Granary Thai Cafe,Stroud Green Road,,
392672517,51.5699774,-0.1139742,The Blue Owl,Stroud Green Road,,
393464348,51.5687314,-0.1112466,Brick & Olive,Stroud Green Road,N4 3PX,
393876938,51.6637739,-0.0944736,The Coffee Hut,,,
401529136,51.5128913,-0.1286937,Purcha,,,
401529157,51.5143608,-0.1294674,Snack Bar & Café,Charing Cross Road,,
401529164,51.5153653,-0.129944,Blank Street Coffee,Charing Cross Road,WC2H 0LA,Blank Street Coffee
408119813,51.5365501,-0.1915057,Starbucks,,,Starbucks
410936534,51.5570402,-0.2159586,Pedros Cafe & Restaurant,,,
410936573,51.5566554,-0.2154952,Costa,,,Costa
410952451,51.555567,-0.2136999,Broadway Cafe Restaurant,,,
410952481,51.5553007,-0.2133416,Café Margoum,,,
411096518,51.5542779,-0.2122005,Nur Cafe,Cricklewood Broadway,,
411115274,51.5533653,-0.2117082,Cafe Guzel,Cricklewood Broadway,,
411115295,51.5532454,-0.2110769,Momtaz Shisha Cafe,Cricklewood Broadway,,
418799862,51.4898192,-0.1352027,Pimlico BBQ and Cafe,,,
420293949,51.4768606,-0.0600452,Andy’s Cafe,Meeting House Lane,,
420293952,51.4768178,-0.0602426,Jamrock Café,Meeting House Lane,,
420293965,51.4837989,-0.0535307,Ilderton Cafe,Ilderton Road,SE15 1NS,
420300532,51.4056331,0.0151641,Costa,Market Square,BR1 1NF,Costa
420738683,51.4036697,0.0149474,Cuppa Chaii,High Street,BR1 1HG,
420777405,51.4054013,0.0149408,Stonehenge Cafe,High Street,BR1 1NJ,
420783176,51.4031442,0.0154597,Black Sheep Coffee,High Street,BR1 1JW,Black Sheep Coffee
420786892,51.4021307,0.0149778,the light,Ethelbert Road,BR1 1HU,
423598119,51.4966026,-0.0883479,Bad Moon Cafe,Great Dover Street,SE1 4GZ,
425164592,51.530747,-0.1192818,Coffee-Uni,,,
425720564,51.5319837,-0.1222953,Costa,York Way,N1 9AA,Costa
425720647,51.5365629,-0.1218822,Cafe Express,York Way,N1 0AX,
425720656,51.5367306,-0.1218949,Venezia Cafe,York Way,N1 0AX,
427539145,51.5308959,-0.1221137,Blank Street Coffee,Pentonville Road,N1 9NR,Blank Street Coffee
427571064,51.5334016,-0.1190561,Sunrise Cafe,,,
428964038,51.4940844,-0.1513535,Unknown,,SW1W 9PB,
429187267,51.5765301,-0.0976654,Costa,,,Costa
430435466,51.529372,-0.1203346,Aux Pains de Papy,Gray's Inn Road,WC1X 8QF,
430435515,51.5296591,-0.1205585,Cappadocia,Gray's Inn Road,WC1X 8QF,
430437717,51.5302672,-0.1211104,Cafe Plaka,,,
442973102,51.5026285,-0.1079845,Caffè Nero,The Cut,SE1 8LL,Caffè Nero
443029946,51.4934413,-0.1503154,TomTom Coffee House,Ebury Street,SW1W 9QD,
443404595,51.4916626,-0.1580309,The Black Penny,Duke of York Square,SW3 4LY,
443418105,51.5320877,-0.0344133,Hiland,Roman Road,E3 5LX,
445685420,51.4909415,-0.1613428,Coffee by Real Eating Co,King’s Road,SW3 4TZ,
448750299,51.5627213,0.2177878,Costa,High Street,RM12 4UH,Costa
452149625,51.5142471,-0.1596019,Coffee by Real Eating Co,Great Cumberland Place,W1H 7AS,
456065300,51.4073643,-0.0279273,High Street Café,High Street,BR3 1EW,
456065312,51.4068673,-0.0282201,Munch,,,
456213965,51.5102976,-0.1391473,Starbucks,Vigo Street,W1S 3HF,Starbucks
456277408,51.5106844,-0.1421362,Morris’s,Clifford Street,W1S 4JZ,
456384023,51.4070103,-0.0277819,Maria's,High Street,BR3 1AG,
456384028,51.4065691,-0.0282488,Paloma,High Street,BR3 1AG,
456389170,51.4094761,-0.0253859,Le Traiteur,High Street,BR3 1AY,
456718344,51.5112419,-0.1413145,Nkora,Old Burlington Street,W1S 2JR,
457131524,51.5898027,-0.2229654,Shoki Shakes,,,
457138699,51.5900442,-0.2230978,Tonys Cafe,,,
457138983,51.5900509,-0.2232265,MunCHizz,,,
457906283,51.5084004,-0.2601834,Acton Park Cafe,,,
459654598,51.6015731,-0.1118266,Cafe Blossom,,,
459654600,51.6014736,-0.1117815,London,,,
459786532,51.5979425,-0.1102767,Nest Café,,,
462025210,51.5133351,-0.1501507,Deliciously Ella,Weighhouse Street,,
462025234,51.5130973,-0.1506616,H.R. Higgins (Coffee-man) Ltd.,Duke Street,W1K 5AS,
462593318,51.4646226,-0.0367765,The Broca,Coulgate Street,SE4 2RW,
467699596,51.5996939,-0.1471222,Holybella,Colney Hatch Lane,N10 1ER,
469077021,51.5653998,-0.482381,Fran's Tea Room,,,
469446873,51.5203041,0.0186562,Candy Crush Desserts,Barking Road,E13 8HR,
470362541,51.5051285,-0.0221906,Brera,Cabot Square,E14 4QT,
471488492,51.5117851,-0.0820271,Claudio's,Cullum Street,EC3M 7JJ,
472663741,51.5129814,-0.1560993,Cardinals of Mayfair,North Row,,
473484580,51.5001761,-0.0893173,Workman Cafe,Pilgrimage Street,SE1 4LL,
474360834,51.495317,-0.0770437,Best of Bermondsey,,,
474360835,51.4959452,-0.0788668,Embassy Cafe,,,
474360836,51.4965369,-0.0806743,Tas-Ty Snacks,,,
475381384,51.5172487,-0.0665909,Casablanca Cafe / Alauddin Sweets,Whitechapel Road,E1 1JX,
475578739,51.5511032,-0.1140186,Sacred Cafe,Hornsey Street,,
475895938,51.5987536,-0.0717022,Marmalade,,,
479652541,51.4267636,-0.0559198,Cobb’s Corner Cafe,Kirkdale,SE26 4RS,
482835015,51.4898615,-0.0964618,Cafe House,Walworth Road,SE17 1RW,
482835046,51.4863485,-0.0948103,Ranga Cafe,Walworth Road,SE17 2NA,
491814121,51.5684526,0.0085377,Le Parisien,,,
503721804,51.5613204,-0.1198616,Manor Gardens Cafe,,,
504319824,51.5666235,-0.0726743,Enjoy Cafe,Stamford Hill,N16 6XS,
506314233,51.4856774,-0.1235909,Starbucks,South Lambeth Place,SW8 1SP,Starbucks
506572408,51.5377299,-0.0996641,Unknown,Essex Road,,
506664965,51.4932526,-0.2237089,Caffè Nero,Hammersmith Broadway,W6 7AL,Caffè Nero
510785414,51.5218355,-0.1200728,The Espresso Room,Great Ormond Street,WC1N 3HZ,
510907367,51.5150674,-0.1940465,Caffè Nero,Westbourne Grove,W2 4UP,Caffè Nero
513785456,51.5158815,-0.1638511,Costa,,,Costa
522028723,51.4366401,-0.1046394,Thai Duck Deli,Norwood Road,SE27 9DQ,
522089531,51.4338129,-0.103872,Sorrento,Norwood Road,SE27 9AA,
522092724,51.4365775,-0.1050968,Taormina,Norwood Road,SE27 9AJ,
522095781,51.4372465,-0.1055431,The Electric Cafe,Norwood Road,SE27 9AJ,
529071762,51.5966835,-0.0681933,Titanic Cafe,,,
529096629,51.5953223,-0.0691479,Costa,High Road,N17 6SB,Costa
529116416,51.5883423,-0.0704043,Munch Box,High Road,N15 4BN,
529116438,51.5908807,-0.070331,Tradicia,,,
530815658,51.4694002,-0.2095248,VV Cafe,,,
534228497,51.5341825,-0.2196276,Arthur's Cafe,Station Terrace,,
534671858,51.511682,-0.1875856,Starbucks,Queensway,,Starbucks
534907516,51.5149324,-0.0977564,Caffè Nero,Newgate Street,EC1A 7HL,Caffè Nero
534964186,51.506748,-0.0906,Caffè Nero,Cathedral Street,SE1 9DE,Caffè Nero
534973107,51.5038414,-0.0951224,Damascan Kitchen,,,
535931751,51.587608,-0.063297,Costa,Broad Lane,N15 4QD,Costa
537956108,51.6505443,-0.1785967,Busy Bee Cafe,,,
544456208,51.5011196,-0.1246162,Caffè Nero,Bridge Street,SW1A 2JH,Caffè Nero
544460891,51.5020386,-0.1178012,Starbucks,Belvedere Road,SE1 7GQ,Starbucks
544504153,51.4973961,-0.1035181,Art Cafe,,,
548220279,51.5387596,-0.0985437,Unknown,,,
549122998,51.5193252,-0.1075476,La Forchetta,,,
549171171,51.5198485,-0.1071526,Bicafe,,,
551592909,51.4577868,-0.3062458,Tide Tables,Riverside,TW9 1TH,
554974745,51.52996,-0.1244199,Costa,,,Costa
559520875,51.5072772,-0.1283651,Caffè Nero,Trafalgar Square,WC2N 5DS,Caffè Nero
563200150,51.5158451,-0.1762672,Starbucks,,,Starbucks
566968127,51.5049527,-0.3051965,Paperback Coffee & Books,St Mary's Road,W5 5RG,
567015646,51.5176371,-0.0808327,Starbucks,Liverpool Street,EC2M 7PY,Starbucks
567052199,51.5059828,-0.3048787,Red Box,St Mary's Road,W5 5RG,
567822684,51.5165862,-0.1767977,Panopolis,,,
568541033,51.5072579,-0.1228872,Costa,,,Costa
568542316,51.507051,-0.122338,Starbucks,,,Starbucks
571285810,51.5410968,0.0014545,Starbucks,Broadway,E15 1NG,Starbucks
573320904,51.5082148,-0.1245247,The Pasty Shop,,WC2N 5HS,
573320919,51.5080331,-0.1252987,Costa,,,Costa
581057258,51.499562,-0.1141846,Sista Barista,Westminster Bridge Road,SE1 7HR,
581960142,51.5224662,-0.1035302,Roni's Cafe,Clerkenwell Road,,
581960643,51.5224819,-0.1034208,Knockbox Coffee,Clerkenwell Road,EC1M 5RS,
582630405,51.5148343,-0.1407765,Costa,Argyll Street,W1F 7TH,Costa
582793582,51.517546,-0.1426726,Starbucks,Langham Place,,Starbucks
582929618,51.5334104,-0.473864,More,,,
583286339,51.4748458,-0.1745798,Suzette,Battersea Square,SW11 3RA,
587775005,51.502499,-0.11761,La Cucina Di Mamma,Belvedere Road,SE1 7GQ,
588034827,51.5075005,-0.1267675,Costa,,,Costa
588474736,51.4948912,-0.0884898,Tokoton,Bartholomew Street,SE1 4AL,
593349441,51.525621,-0.099581,Unknown,,,
594876703,51.511417,-0.1366962,Bibi's,Golden Square,W1F 9JG,
595301296,51.509704,-0.133266,Caffee Concerto,Haymarket,SW1Y 4SE,
595303835,51.5094715,-0.1323526,Caffè Nero,Haymarket,SW1Y 4SP,Caffè Nero
595709909,51.3763847,-0.0926573,AMT Coffee,George Street,CR0 1LE,AMT Coffee
595712460,51.3761131,-0.0926978,West Cornwall Pasties,George Street,CR0 1LE,
597395311,51.58351,-0.0184983,Brad's Coffee Bar,,,
601847904,51.4921878,-0.2762353,403 Cafe,,,
603113483,51.513513,-0.127203,La Bottega,,,
603128624,51.5114893,-0.1276746,Caffè Nero,Cranbourn Street,WC2H 7AD,Caffè Nero
609954947,51.5125955,-0.104019,Starbucks,New Bridge Street,EC4V 6BJ,Starbucks
613890604,51.392925,0.1120757,Costa,Cray Avenue,BR5 3RP,Costa
617344978,51.552099,-0.193129,David's Deli,,,
621185183,51.5210599,-0.108788,Cafe Mano,,,
621185189,51.521416,-0.1088769,Tuffo's Place,,,
621771171,51.5317157,-0.1046939,Duncan Terrace Cafe,City Road,EC1V 1NE,
624043344,51.511855,-0.1313096,Candy Cafe,Macclesfield Street,W1D 6AU,
630425966,51.5057172,-0.2269607,Costa,Uxbridge Road,,Costa
632550011,51.410876,-0.3017132,Starbucks,Clarence Street,KT1 1QY,Starbucks
632550013,51.4107537,-0.3066407,Local Hero,Thames Street,KT1 1PE,
635973933,51.505967,-0.087685,My Tea Shop,,,
638752885,51.4106297,-0.2985736,Cafe Jax,,,
638925838,51.532188,-0.105164,Candid Cafe,Torrens Street,EC1V 1NQ,
643312445,51.5178546,-0.1134709,Wendells,Chancery Lane,,
644625847,51.5252191,-0.1327573,Bloomsbury Café,Gordon Street,WC1H 0AY,
647004373,51.5322247,-0.1264865,Starbucks,,,Starbucks
647052117,51.5319049,-0.1263153,Benugo,,,
647333252,51.5145564,-0.1649754,Markus Coffee Co Ltd,Connaught Street,,
647402078,51.5146604,-0.1665827,Stuzzico...,Kendal Street,W2 2AW,
647875599,51.5208569,-0.1164931,Caffè Nero,Theobalds Road,WC1X 8NW,Caffè Nero
648517568,51.5261237,-0.0781397,Prufrock Coffee,Shoreditch High Street,E1 6JE,
652850246,51.5278179,-0.0226269,Mighty Bite,Bow Road,E3 2AN,
653124873,51.5087508,-0.1254965,Social Bite,Strand,WC2R 0QU,
653142618,51.5013164,-0.07786,The Cat & Cucumber,Tower Bridge Road,SE1 2AD,
653984957,51.5633341,-0.072633,Snacks 'n' things,Northwold Road,N16 7HL,
653984958,51.5632082,-0.072287,Warbler Cafe,Northwold Road,N16 7HL,
655166613,51.48997,-0.096525,Cafe Amore,Walworth Road,SE17 1RW,
655168554,51.4928238,-0.1000252,Builders Cafe,,,
656506624,51.5812249,-0.1216394,Miranda,Broadway Parade,N8 9DB,
658951691,51.5511864,-0.0751684,Unknown,,,
658951698,51.5514789,-0.075097,Espresso & Shakes,,,
660897077,51.558947,-0.0744578,Bodrum Cafe Bar,,,
660899255,51.5606514,-0.0740564,Costa,Stoke Newington High Street,N16 0PJ,Costa
660899260,51.5608315,-0.0740418,Joseph's cafe & restaurant,Stoke Newington High Street,N16 0NY,
661038345,51.500624,-0.116915,Espressamente,,,
661152752,51.5084346,-0.1321275,The Borough Barista,Charles II Street,SW1Y 4QU,
661170332,51.5787074,-0.124036,Harris + Hoole,,,Harris + Hoole
662184774,51.5066813,-0.0740464,Unknown,St. Katharine's Way,E1W 1LD,
664966075,51.5195479,-0.135626,Blank Street Coffee,Charlotte Street,,Blank Street Coffee
666475916,51.5138693,-0.0935309,Cafe Below,Cheapside,EC2V 6AU,
666479569,51.6469539,-0.1344589,Lizzie's Cucina,,,
666749188,51.5115013,-0.0751203,Starbucks,Minories,EC3N 1JJ,Starbucks
667454570,51.510474,-0.074603,Oasis,Minories,EC3N 1JL,
668820569,51.511976,-0.079927,Caffè Nero,London Street,EC3R 7JP,Caffè Nero
669891136,51.5294047,-0.1296186,Pinner Cafe,Chalton Street,NW1 1JB,
671776303,51.4919041,0.1594898,Unknown,,,
672713708,51.5150998,-0.0685281,Fresh,Commercial Road,E1 1LD,
675734371,51.5117445,-0.0774102,Caffeina,Lloyd's Avenue,EC3N 3AE,
675800454,51.5060928,-0.1359706,St James Caffe,Pall Mall,SW1Y 5JG,
675866067,51.5084676,-0.136869,Redemption Roasters,Jermyn Street,SW1Y 6DT,Redemption Roasters
676754489,51.4003252,0.0453016,Delish,Southborough Road,BR1 2EB,
678240182,51.4773102,-0.286063,GAIL's,Station Parade,TW9 3PT,GAIL's Bakery
679658286,51.494997,-0.084128,Presto Cafe,,,
679658528,51.495478,-0.083377,Royal Delight,,,
679658661,51.495661,-0.083087,Leone,Tower Bridge Road,,
681200105,51.5282488,-0.1336117,Panopolis,Eversholt Street,NW1 2HS,
689097130,51.5084656,-0.0792217,Starbucks,Tower Place,EC3R 5BT,Starbucks
690721437,51.5069374,-0.1459816,Caffè Nero,Curzon Street,,Caffè Nero
691084094,51.5158824,-0.1406487,Costa,Great Portland Street,W1W 8QJ,Costa
691084101,51.5164718,-0.1409473,Dulche,Great Portland Street,,
691114553,51.5182443,-0.141725,GT Corner,,,
691387452,51.5097893,-0.0794907,Carter's,Byward Street,EC3R 5AS,
691637963,51.511192,-0.127852,Cafe Koha,,,
693137893,51.4977754,-0.1839574,Cafe Deco,Gloucester Road,,
693728413,51.4061941,0.016828,Terrace Cafe & Restaurant,Widmore Road,BR1 1RW,
693728467,51.4072541,0.0579532,Chislehurst Caves,,,
694473687,51.511228,-0.077017,Camden Food Co,Fenchurch Place,EC3M 4AJ,
696746887,51.5223949,-0.1322463,Dillons,Gower Street,WC1E 6EG,
698447397,51.5228705,-0.132082,Engineering Cafe,,,
698800793,51.5915916,-0.0561688,Weighbridge Cafe,Mill Mead Road,N17 9QU,
699693936,51.4945555,-0.182426,Starbucks,Gloucester Road,,Starbucks
702796635,51.5126035,-0.090075,Starbucks,Walbrook,EC4N 8BN,Starbucks
703360692,51.5180533,-0.1171093,apostrophe,,,
703524047,51.5272968,-0.1026967,Unknown,,,
704313999,51.491734,-0.087267,Darwin Court Cafe,,,
705212455,51.4635424,-0.1144562,San Marino,Brixton Road,SW9 7DG,
707299370,51.5110877,-0.0756382,De Vine,Vine Street,EC3N 2PX,
707301027,51.510903,-0.0755982,Burrito Joe,Vine Street,EC3N 2PX,
708866092,51.5152475,-0.0799419,Caffè Nero,Saint Mary Axe,EC3A 8FR,Caffè Nero
710527432,51.5106631,-0.0763715,Unknown,,,
714549513,51.5024863,-0.092428,Costa,Borough High Street,SE1 1LB,Costa
720890821,51.5241273,-0.133231,Print Room Café,Gower Street,WC1E 6BT,
731087846,51.5120395,-0.2007618,Farm Girl,Portobello Road,,
731457520,51.4487115,-0.1251677,Angela's Cafe,New Park Road,SW2 4UN,
734745704,51.5207625,-0.1167654,Caffe Capital,,,
735368929,51.5208852,-0.1211241,Internet Cafe,Boswell Street,,
742539844,51.5224017,-0.1039742,EC1 Coffee House,Clerkenwell Road,,
742539852,51.5223152,-0.1018208,cafe La Forchetta,,,
745745245,51.6179615,-0.1769819,Popular Two,High Road,N12 8PT,
746611714,51.514958,-0.125142,La Torre,,,
759607755,51.562002,-0.080928,Simply Coffee,,,
763573572,51.4570877,0.0941651,Unknown,,,
766153997,51.3903095,-0.0276138,Cafe 'B',,,
769140122,51.575544,-0.223581,Unknown,,,
769140151,51.5711569,-0.1936139,Unknown,,,
769140156,51.5603714,-0.2077613,Unknown,,,
775090651,51.5034445,-0.101859,Union Cafe,,,
799284830,51.5145479,-0.1387551,Costa,,,Costa
800600465,51.5510408,-0.1653309,Costa,Haverstock Hill,NW3 2AG,Costa
800600491,51.5508688,-0.1650734,Von Crumb,Haverstock Hill,NW3 2AG,
811773306,51.5335831,-0.1044742,Double Knot Cafe,Duncan Street,,
811773600,51.5336571,-0.1047363,Daily Grind,Duncan Street,N1 8BW,
815734768,51.5544338,-0.1647213,Matchbox Cafe,Elm Terrace,,
817651211,51.5333313,0.1266774,Unknown,,,
821344552,51.5110476,-0.1261919,Santa Nata,New Row,WC2N 4LH,
821344556,51.5110101,-0.1266538,Knoops,New Row,,
821930971,51.52422,-0.127635,Cafe Toscana,Woburn Place,WC1H 0JR,
823295035,51.5389636,-0.098812,Brood Roastery,,,
823341454,51.4816409,-0.1992417,Café Olé,Walham Grove,SW6 1QP,
823477072,51.5411879,-0.0942431,People's Choice,,,
824410176,51.539411,-0.101389,Piero Maurizaio,,,
830364388,51.6190731,-0.1128541,Broomfield Coffee Bar,Alderman's Hill,N13 4PP,
831257535,51.5537101,-0.1621922,Royal Cafe & Sandwhich bar,,,
831425925,51.5531909,-0.158591,Ravel's Bistro,Fleet Road,,
831425981,51.553979,-0.1642734,Giacobazzi's,,,
831426026,51.553957,-0.164871,Zamazingo,,,
833405264,51.5408349,-0.2398283,Roundwood Lodge,,,
835865222,51.3567835,-0.2169415,Coffee Zone,,,
835909445,51.3577916,-0.217742,Crostini,Ewell Road,SM3 8BU,
835927413,51.357954,-0.2162292,Piggies,The Broadway,SM3 8AY,
835946924,51.3582002,-0.2163526,Cheam Cottage,The Broadway,SM3 8AY,
836831605,51.3579424,-0.2154921,Costa,High Street,SM3 8RQ,Costa
836831668,51.3592366,-0.2170597,La Petite Boulangerie,The Broadway,SM3 8BL,
839047558,51.517476,-0.11902,Buffet Service,Little Turnstile,,
840101660,51.533672,-0.105291,Cafe Express,,,
840177920,51.5134528,-0.1227171,Kastina And Ovens,Floral street,,
842297598,51.497857,-0.076323,Cafepost,Abbey Street,,
842436006,51.5653941,-0.1348405,Cafe Metro,,,
849461852,51.6209358,-0.2551756,Unknown,,,
849731728,51.5078958,-0.124384,Blue Onion,The Arches,WC2N 6NG,
849735707,51.507844,-0.123661,Starbucks,,,Starbucks
857397741,51.5209793,-0.1218567,Mary Ward Cafe,,,
858321430,51.496,-0.1353793,Coffee Republic,,,
863838548,51.500612,-0.113043,Little Bread Pedlar,Lower Marsh,SE1 7RJ,
863838579,51.5002995,-0.1139574,Olympic Cafe,Lower Marsh,,
865138602,51.5107797,-0.0841049,Joe & The Juice,Eastcheap,EC3M 1BU,Joe & The Juice
871153864,51.6570397,-0.1498175,Trent Park Cafeteria,,,
871982508,51.5130422,-0.0881441,Pod,Lombard Street,EC3V 9AY,
874508360,51.4273486,-0.0563981,Sugahill Cafe,Kirkdale,SE26 4NL,
874509758,51.4262779,-0.0537068,Kente Cafe,,,
874743647,51.5251596,-0.139466,Starbucks,Euston Road,NW1 3DP,Starbucks
874823452,51.5216048,-0.1245806,Walkmisu,Russell Square,WC1B 5EH,
878029964,51.495592,-0.129055,Caffè Nero,Marsham Street,SW1P 3DP,Caffè Nero
878030040,51.5222261,-0.1621832,Gino's Coffee Bar,Great Central Street,,
878996991,51.6577357,-0.1397835,Wildlife Rescue & Ambulance Service,,,
885270567,51.6517933,-0.0864386,EN Cafe,,,
885328356,51.6521528,-0.0848521,Papadeli,,,
885336150,51.6511314,-0.0839013,Costa,Palace Gardens,EN2 6SN,Costa
885348612,51.6504709,-0.0804497,Dugdale Coffee House,,,
885353536,51.6518003,-0.0808295,Bonitos,,,
885356550,51.6519717,-0.0821374,Caffè Nero,,,Caffè Nero
885380157,51.6523866,-0.0802391,Buffalo,,,
885381525,51.6528355,-0.0803826,Macies,,,
885386909,51.65229,-0.0834131,Starbucks,,,Starbucks
886750317,51.6070806,0.0327092,Cafe Solo,,,
893489167,51.519634,-0.1171053,Beck's cafe,Red Lion Street,WC1R 4PS,
893489170,51.5195469,-0.1173284,Kozzy Cafe,Red Lion Street,WC1R 4PD,
906172959,51.5195367,-0.0803524,Pod,Exchange Square,EC2A 2EH,
908419945,51.5006383,-0.0983707,Terry's Cafe,Great Suffolk Street,SE1 1PE,
915100797,51.5799731,-0.3366778,Costa,College Road,HA1 1FD,Costa
916986417,51.5138266,-0.0753846,Peter's Cafe,Aldgate High Street,EC3N 1BD,
931621507,51.5400055,-0.1405896,Camden Coffee House,Camden Road,,
931622008,51.55632,-0.1386199,Rustique,Fortess Road,NW5 2HP,
931636361,51.5554062,-0.1392203,Cinnamon Village,Fortess Road,,
931637161,51.5427766,-0.1445742,Haven Youth Cafe,Castlehaven Road,,
931645316,51.541376,-0.1573432,Seventy nine,,,
931673369,51.5402019,-0.1542648,L' Absinthe,,,
931673398,51.5406548,-0.1577484,Le Tea Cosy,,,
933245325,51.6431574,-0.1832079,Hole in the Wall Cafe,,,
935487690,51.5831633,-0.2268526,Costa,Central Circus,NW4 3AS,Costa
940335841,51.5110845,-0.3051845,Starbucks,The Green,W5 5DA,Starbucks
940335844,51.5108291,-0.3053079,Farm W5,The Green,W5 5DA,
947338308,51.5134576,-0.2275196,Shola Karachi Kitchen,Wood Lane,W12 7TQ,
947338311,51.5138012,-0.228067,Crussh,Wood Lane,W12 7TU,
963591732,51.5037252,0.0500706,Caffè Nero,Hartmann Road,E16 2PX,Caffè Nero
965859430,51.4678714,-0.0448881,The Hill Station,Kitto Road,SE14 5TW,
971875299,51.393511,-0.3051897,Cafe St. James,St James Road,KT6 4QH,
976905890,51.4740317,-0.0772592,Peckham Pelican,Peckham Road,SE15 5PY,
983393989,51.5337404,-0.1717014,GAIL's Bakery,Circus Road,NW8 6NX,GAIL's Bakery
984924854,51.5650252,-0.1334411,Cafe Forum,,,
989975954,51.436341,-0.3203527,Swiss Bread Bakery & Café,Ashburnham Road,TW10 7NR,
996533702,51.4849131,-0.2023416,Ghion Cafe,,,
1009119971,51.3981451,-0.0465254,Elmers End Cafe,Croydon Road,,
1015129189,51.4136458,-0.1778466,Starbucks,Tandem Way,SW19 2TY,Starbucks
1024136504,51.5784931,-0.1241172,Costa,The Broadway,N8 8DU,Costa
1024136517,51.5777344,-0.1248127,Brunch on the Hill,,,
1024570955,51.5264955,-0.0633785,E. Pellicci,Bethnal Green Road,E2 0AG,
1043301728,51.525692,-0.1333174,Gordon's Café,Gordon Street,WC1H 0AY,
1044929479,51.3638357,-0.2996241,Rhona's,North Parade,KT9 1QL,
1055546419,51.564306,-0.1303359,Cafe Savvies,Holloway Road,,
1070284942,51.3808036,-0.2827311,Broadway Cafe,Tolworth Broadway,KT6 7HR,
1070284946,51.3809753,-0.2829239,Sunshine Cafe,Tolworth Broadway,KT6 7HR,
1071114085,51.6629681,-0.0777278,Enjoy,,,
1081749585,51.5223632,-0.2075096,Lisboa Patisserie,Golborne Road,,
1094397075,51.5921383,0.0265512,Posh Nosh Cafe,,,
1094783407,51.5644215,-0.1053833,Costa,Seven Sisters Road,N4 2DD,Costa
1097944708,51.477347,-0.2863258,Starbucks,Station Parade,TW9 3PS,Starbucks
1097944719,51.4774138,-0.2866128,Kew Greenhouse,Station Parade,TW9 3PS,
1097959372,51.5001713,-0.3066451,Revival Cafe,South Ealing Road,,
1097959381,51.50145,-0.3069356,L'Amandine,South Ealing Road,,
1098161915,51.515472,-0.302107,Electric Coffee Company,Haven Green,W5 2NX,
1100604258,51.3611007,-0.191794,Caffè Nero,Carshalton Road,SM1 4RA,Caffè Nero
1110892612,51.4444632,-0.1508215,M1LK,,,
1110892628,51.4439391,-0.1501993,Unknown,Bedford Hill,SW12 9EY,
1110892663,51.4444698,-0.1517489,Caffè Nero,Balham High Road,SW12 9AU,Caffè Nero
1110944343,51.4416929,-0.1540699,The Nightingale,,,
1110994650,51.4622736,-0.137469,Caffè Nero,Clapham High Street,SW4 7UG,Caffè Nero
1112173802,51.4635892,-0.1689092,Caffè Nero,Saint John's Hill,SW11 1SA,Caffè Nero
1112205130,51.4660832,-0.1521564,Cake Boutique,Lavender Hill,SW11 5QW,
1112279150,51.458235,-0.1658392,Al Gusto,Northcote Road,SW11 6PJ,
1117171563,51.5133295,-0.3020701,Kimbo,Oak Road,W5 3SS,
1117171655,51.5132517,-0.3017204,Fuwa Fuwa,Oak Road,W5 3SS,
1117274858,51.5140833,-0.3021863,Caffè Nero,The Broadway,W5 2NP,Caffè Nero
1117274907,51.5149178,-0.3013254,Costa,Ealing Broadway Station,W5 2NU,Costa
1117582980,51.5088022,-0.2653843,Fed & Watered,Churchfield Road,W3 6EB,
1126581529,51.4810119,-0.1978916,Del'Aziz,Vanston Place,SW6 1AX,
1127887775,51.5402895,-0.3758429,San Remo Café,Dolphin Road,UB5 6UQ,
1128904449,51.3654075,-0.1863466,Mad Coffee Bar,Lind Road,SM1 4PP,
1129189959,51.3637643,-0.1932263,Starbucks,High Street,SM1 1LX,Starbucks
1132744436,51.3589562,-0.1498895,Caffè Nero,Woodcote Road,SM6 0LY,Caffè Nero
1137274477,51.5164286,-0.1874496,Le Bistro,Porchester Road,W2 6ES,
1137955483,51.6608201,-0.087196,Donart Cafe,Chase Side,,
1139264931,51.6229625,-0.0659286,Victoria Cafe,,,
1139265180,51.6251556,-0.0617203,Peckish,,,
1144942025,51.4638291,-0.1693406,Costa,Saint John's Hill,SW11 1SA,Costa
1149802745,51.5645774,-0.1323648,Internet Cafe,Holloway Road,,
1150114264,51.564498,-0.1311366,68 Speciality Coffee,Holloway Road,,
1151269566,51.6366961,-0.0821943,Euro Cafe,,,
1151341415,51.6593362,-0.0875511,The Green Room,,,
1151671785,51.6591114,-0.0880812,Chef's Kitchen,Chase Side,,
1165952980,51.463804,-0.142011,Starbucks,Old Town,SW4 0LB,Starbucks
1170458243,51.5921399,0.2157659,Cafe on the corner,,,
1174213696,51.4742782,-0.1046933,The Little Cat Cafe,Cormont Road,SE5 9RA,
1203028972,51.5150107,-0.0729333,Costa,Whitechapel High Street,E1 7PT,Costa
1212531400,51.5298538,-0.0545697,Gallery Café,Old Ford Road,E2 9PJ,
1214201146,51.4982475,-0.1118157,The Hub,,,
1217400834,51.5426381,-0.1136131,Sunday,Hemingford Road,N1 1DA,
1221140456,51.48211,-0.2561078,Fat Boy Cafe,,,
1222347146,51.561293,-0.1508417,Bistro Laz,,,
1223820165,51.4990776,-0.1125223,Costa,Westminster Bridge Road,,Costa
1228599735,51.5144531,-0.0555297,Alauddin Sweets,Commercial Road,E1 2PS,
1230966521,51.4970389,-0.1411462,Costa,Cardinal Walk,SW1E 5JE,Costa
1232048577,51.494309,-0.1468458,Starbucks,Buckingham Palace Road,SW1W 0SS,Starbucks
1253219087,51.5639971,-0.1187879,Jungle Rumble,Hornsey Road,,
1262600400,51.6154666,0.025516,Eat Wells,,,
1262681790,51.5178173,-0.1516381,WA Bakery,Thayer Street,W1U 3JG,
1266630554,51.5769999,-0.0951923,Unknown,,,
1267855186,51.5367457,-0.0618461,l'eau a la bouche,Broadway Market,E8 4PH,
1282224696,51.4931554,-0.1264375,Art St Kitchen,,,
1285980011,51.5637879,-0.0539808,E5 Cafe and Restaurant,Detmold Road,E5 9NJ,
1290647985,51.4962824,-0.1442815,Victoria Cafe,Terminus Place,SW1V 1JR,
1290647997,51.4940226,-0.1415293,MIX Espresso Bar,,,
1290648053,51.4961503,-0.1422025,Internet Café @ Victoria,Vauxhall Bridge Road,SW1V 1AA,
1290649083,51.5914475,-0.3812133,Costa,Marsh Road,HA5 5PB,
1304102795,51.5673962,-0.1994638,Unknown,,,
1309411223,51.5014517,-0.1111478,Cafe del Marsh,Lower Marsh,SE1 7RG,
1311769872,51.4828372,-0.2116419,Arturos,,,
1312335328,51.5147303,-0.0962884,Blank Street Coffee,Cheapside,EC2V 6BJ,Blank Street Coffee
1312974191,51.5692363,-0.1435013,Lauderdale House Cafe,,,
1313987219,51.4521568,-0.1475348,The Georgian,Balham Hill,SW12 9DX,
1314268648,51.4610354,-0.138659,The Pepper Tree,Clapham Common South Side,SW4 7AB,
1314925429,51.4537243,-0.1463492,Sequoia Lounge,Cavendish Parade,,
1314925449,51.4526355,-0.1473026,Costa,Balham Hill,SW12 9DY,Costa
1314925459,51.453909,-0.1461129,21 Grams,Cavendish Parade,SW4 9DP,
1321975603,51.5414047,0.0003912,Costa,The Mall,E15 1XQ,Costa
1322039182,51.541209,0.0006799,Unit Six,The Mall,E15 1XA,
1324709955,51.5961766,-0.2428868,DelisquareD,Heritage Avenue,NW9 5EN,
1330788640,51.512509,-0.134416,The Living Room,,,
1331753906,51.5795172,-0.3369489,Caffè Nero Express,,,Caffè Nero
1334044919,51.497355,-0.1406922,Yolk,Cardinal Walk,SW1E 5JH,
1338781219,51.5403609,0.0827667,The Best Cafe in Town,,,
1340967807,51.5200399,-0.1586635,Sara Cafe Shisha,Crawford Street,W1U 6BZ,
1343966881,51.5297854,-0.1106374,Ground Control,Amwell Street,EC1R 1UR,
1344022045,51.5346714,-0.1115691,Coffee Berry,Barnsbury Road,N1 0HG,
1344428619,51.4896463,-0.099337,The Electric Elephant Cafe & Gallery,Crampton Street,SE17 3AE,
1360472219,51.4932481,-0.1816393,Caffè Nero,Gloucester Road,,Caffè Nero
1360472222,51.4931719,-0.1815662,elixis,Gloucester Road,,
1402845956,51.4454806,-0.1892176,Best Cafe,Garratt Lane,SW18 4DY,
1402845959,51.4483822,-0.1897152,Casbah Coffee,Garratt Lane,SW18 4ED,
1402845971,51.4495313,-0.1895867,Corner Café,Garratt Lane,SW18 4DT,
1419006169,51.5039902,-0.1919384,Cafe Jumo,Kensington Church Street,W8 4HA,
1419164432,51.513109,-0.3067379,Artisan,New Broadway,W5 2XA,
1419213083,51.5125414,-0.3081456,Amiri Lounge,New Broadway,W5 5AL,
1419213102,51.5127033,-0.3070767,Caffè Nero,New Broadway,W5 5AH,Caffè Nero
1420456391,51.4988743,-0.1999531,labakery,Kensington High Street,W8 6DN,
1420456394,51.4989153,-0.1997826,GAIL's,Kensington High Street,W8 6ND,GAIL's Bakery
1422516977,51.5884732,-0.2288654,SoHo,,,
1428315763,51.4946903,-0.145685,Costa,Buckingham Palace Road,SW1W 9SJ,Costa
1439613836,51.402753,0.0155852,Caffè Nero,High Street,BR1 1DN,Caffè Nero
1445662170,51.5577176,-0.1188535,Starbucks,Holloway Road,N7 6AH,Starbucks
1448311257,51.5200195,-0.0836635,Starbucks,Sun Street,EC2M 2PY,Starbucks
1449441688,51.5435787,-0.0058774,Starbucks,Montfichet Road,E20 1EL,Starbucks
1455585958,51.526113,-0.1234396,Project68,,,
1455585960,51.5260671,-0.1235652,The King Of Falafel,,,
1455621433,51.5263241,-0.1222565,Lumen,,,
1478094152,51.5040288,-0.2187092,Esquires Coffee House,,,
1478094153,51.505106,-0.2184781,Caffè Nero,Ariel Way,W12 7GA,Caffè Nero
1481364253,51.4152228,-0.1922329,Bonjour Brioche,,,
1489585770,51.5788874,-0.3340598,Coco Corner,Station Road,HA1 2AT,
1490039231,51.5808194,-0.3341276,The Urban Chocolatier,,,
1490039314,51.5807093,-0.3337926,T4 Tea For U,,,T4
1490821086,51.529722,-0.0696014,Campania,Ezra Street,E2 7RH,
1492880301,51.5169168,-0.2903957,Coffee & Co,Queens Parade,W5 3HU,
1494347959,51.5649238,-0.3529975,222 Café,Northolt Road,HA2 8DU,
1504833279,51.5163244,-0.1392261,Bageltopia,Eastcastle Street,W1W 8DY,
1505183207,51.4636253,-0.170496,Caffè Nero Express,Saint John's Hill,SW11 2QP,Caffè Nero
1505183922,51.4642256,-0.1705128,Costa,,,Costa
1508434147,51.5229867,-0.1143482,Gray's Kitchen,,,
1508663643,51.5815606,-0.3334298,Ancona,Station Road,HA1 2TA,
1508663648,51.5820156,-0.3325044,Unknown,Station Road,HA1 2EA,
1517871633,51.5871077,-0.1238434,Elsie Cafe,Priory Road,N8 7RD,
1538882709,51.5364116,-0.1164148,Merkato,Caledonian Road,N1 0SQ,
1538888929,51.5366562,-0.1163601,internet cafe,,,
1538908193,51.559576,-0.1159479,Ollie's Cafe,,,
1540888903,51.5579738,-0.1188922,mooboo,,,
1558003158,51.5089027,-0.0100367,Poplar Cafe,Poplar High Street,E14 0BE,
1567232814,51.5628388,-0.1976312,Jels Cafe,,,
1567342529,51.5576063,-0.2132883,Unknown,,,
1571201518,51.5262527,-0.2067282,W10 Coffee,Harrow Road,,
1573380891,51.5924075,-0.3866425,Daisy's in the Park,West End Lane,HA5 1AE,
1583662832,51.4375599,-0.1269587,Perfect Blend,Streatham High Road,SW16 1EQ,
1587291199,51.6045085,-0.0240543,Unknown,,,
1588688119,51.5296588,-0.0836722,Curious Yellow Kafe,Pitfield Street,N1 6BT,
1591503138,51.4965031,-0.2067533,Costa,Kensington High Street,W14 8NL,Costa
1597709477,51.4152052,-0.3383297,The Pheasantry,Bushy Park,TW11 0EQ,
1598083651,51.6528281,-0.2093665,Cafe Opera,,,
1598304269,51.6469408,-0.2150566,Bells Hill Cafe,,,
1604760291,51.491181,-0.1730639,Cafe Roma,Fulham Road,,
1613019140,51.5358008,-0.1165392,Kibco coffee,,,
1614146320,51.5222036,-0.1581626,Heavenly Desserts,Marylebone Road,,
1614719622,51.3721078,-0.1663176,Yew & Co,Nightingale Road,SM5 2DN,
1623696354,51.5290448,-0.1012779,Goswells Eatery,,,
1631413548,51.5262009,-0.0755353,Leila's Cafe,Calvert Avenue,E2 7JP,
1631426716,51.530736,-0.0767647,Bagel Master,Cremer Street,,
1632869516,51.4738155,-0.2129052,Tinto Coffee,Fulham Palace Road,SW6 6SX,
1634375633,51.6533641,-0.2006752,Barnet Cafe,High Street,EN5 5SN,
1634392697,51.6535183,-0.2011138,Costa Coffee,High Street,EN5 5SN,Costa
1634404174,51.6551723,-0.2015755,Gail's,High Street,EN5 5XW,Gail's Bakery
1639069620,51.3725344,-0.1684392,Moo & Bean Cafe,William Street,SM5 2RB,
1639069664,51.3722652,-0.1673037,Sunshine Cafe,Green Wrythe Lane,SM5 2DW,
1639679752,51.3662996,-0.1716875,Bella,Westmead Corner,SM5 2NZ,
1641302856,51.4851057,-0.1820319,Starbucks,Fulham Road,,Starbucks
1647830886,51.5013267,0.0052987,Costa,Peninsula Square,SE10 0EN,Costa
1647882934,51.6517964,-0.0821298,Muffin Break,,,Muffin Break
1649376459,51.3665299,-0.1529481,Matte Black Cafe,Manor Road,SM6 0BW,
1653245493,51.3585661,-0.1498019,Costa,Woodcote Road,SM6 0LY,Costa
1657015441,51.4725537,-0.0369547,Unknown,,,
1657027863,51.4742917,-0.0360462,Costa,,,Costa
1657505500,51.5517598,-0.1115331,The Crown,Holloway Road,N7 8HG,
1657906648,51.4341927,-0.1279348,Purple,Streatham High Road,,
1662771209,51.5382846,-0.0013168,The Pantry Cafe,High Street,E15 4QZ,
1664985611,51.5255859,-0.2116105,The Place To Eat,Conlan Street,,
1666758163,51.475369,-0.0389552,City Walk Cafe,New Cross Road,SE14 6AS,
1667405210,51.4802985,-0.1945777,Starbucks,Fulham Road,SW6 1BW,Starbucks
1674576091,51.3589207,-0.1910873,Delight,Brighton Road,SM2 5AD,
1675108586,51.475987,-0.0350792,Delicious Cafe & Sandwich Bar,New Cross Road,SE14 6AT,
1675499092,51.3595674,-0.1916138,Coughlan's Bakery,High Street,SM1 1DE,
1676765480,51.3684652,-0.1950436,Sutton Cafe,,,
1676787806,51.3697405,-0.1951549,Cafe Delight,,,
1678901006,51.5168114,-0.172688,Kioskafé,Norfolk place,W2 1QH,
1680414573,51.4254018,-0.2180219,Caffè Nero,High Street,SW19 5EE,Caffè Nero
1682431021,51.524204,-0.1112791,1st Class Cafe,,,
1684653005,51.4769143,-0.0422939,Starbucks,,,Starbucks
1687407489,51.4743186,-0.0359526,Thirty Five,Lewisham Way,SE14 6QD,
1687586795,51.3825356,-0.187151,St Helier Cafe,,,
1687683446,51.3837409,-0.1889375,Star Express,,,
1689288764,51.6498657,-0.085941,Enfield Town Park Cafe,,,
1689475271,51.5111081,-0.0781623,City Cafe,Pepys Street,EC3N 4AF,
1696895509,51.5025068,-0.1737433,Parks Sports Café,,,
1696895511,51.5057422,-0.163075,The Boat House,,,
1704145246,51.3662964,-0.179608,Brunchies Cafe,Westmead Road,SM1 4JD,
1704642551,51.4808611,-0.2128242,Ruby's Cafe & Deli,,,
1704645381,51.4806687,-0.2127052,V V Cafe,,,
1707271464,51.4805189,-0.1980349,Caffè Nero,Fulham Road,SW6 5NH,Caffè Nero
1708655669,51.4939021,-0.012568,Asda Café,East Ferry Road,E14 3BT,Asda
1708682576,51.5015624,-0.0196501,Hazev,South Quay Square,E14 9RT,
1713257250,51.5109264,-0.0945923,Etsu Cafe,Queenhithe,EC4V 3DX,
1723647449,51.5841268,-0.0242281,T4 Tea For U,High Street,E17 7BU,T4
1724405555,51.5197922,-0.1320414,Honey & Co. Daily,Store Street,WC1E 7DB,
1738047132,51.4641148,-0.1702442,Costa,,,Costa
1738047180,51.4640421,-0.1700046,Delice de France,Saint John's Hill,SW11 2QP,
1752163496,51.4770419,-0.2351928,Kingfisher Kitchen,Queen Elizabeth Walk,SW13 9WT,
1753230404,51.5177918,-0.0826338,Costa,Liverpool Street,EC2M 7PY,Costa
1779839257,51.5115238,-0.0870248,Pod,King William Street,EC4N 7BE,
1789910699,51.4496344,-0.0444204,Two Spoons,Honor Oak Park,SE23 1DY,
1794807078,51.4932497,-0.1466066,Terravision/Terracafé,,,
1794930255,51.4938092,-0.1464218,Grand Café,Colonnade Walk,,
1798788051,51.5719371,-0.1968432,Caffè Nero,,,Caffè Nero
1798788053,51.5717522,-0.1959731,Starbucks,,,Starbucks
1799404858,51.4850702,-0.2202493,Caffè Nero,,,Caffè Nero
1801086681,51.3934255,-0.304544,The Press Room,Claremont Road,KT6 4QR,
1801829042,51.5371985,-0.0612149,Aya & Suki,Broadway Market,E8 4QJ,
1813026592,51.3722938,-0.1011826,Unknown,Matthews Yard,CR0 1FF,
1816705112,51.5179036,-0.0995562,Cafe Barts,,,
1832227872,51.5171313,-0.1073528,Nosh Cafe,Holborn Circus,EC1N 2HB,
1834746839,51.5598641,-0.1144434,Paradiso Desi,,,
1834746844,51.5597008,-0.1142701,elian's corner,,,
1841553346,51.4188045,0.1037156,Unknown,,,
1843990627,51.4806207,-0.0945445,Taggs Coffee Co.,,,
1843996484,51.4826433,-0.0943866,Mary's Cafe,Camberwell Road,SE5 0EZ,
1844013509,51.4846399,-0.0934335,Star Cafe,Arnside Street,SE17 2AP,
1844014446,51.484644,-0.093349,Sierra Spot,,,
1844622463,51.515745,-0.1122808,Onkis,,,
1844622465,51.5158752,-0.112093,Coffee Etna,,,
1852958547,51.400114,-0.2558333,Costa,High Street,KT3 4BP,Costa
1852968859,51.400524,-0.2559674,Café Galio,High Street,KT3 4BP,
1853003791,51.5323759,-0.0612455,Billy's Cafe,Pritchard's Road,E2 9AP,
1853048589,51.5726743,0.0667853,Gardener's Cottage Cafe,,IG1 4XA,
1855303071,51.5258763,-0.0836021,Black Box,Great Eastern Street,EC2A 3HZ,
1861712616,51.5772746,0.0213279,The Bungalow Cafe,Spratt Hall Road,E11 2RQ,
1861753244,51.3594715,-0.1911391,Caffe Melo,"Station Parade, Brighton Road",SM1 1JA,
1872513014,51.5913574,-0.0201677,Deeney's Cafe,,,
1888837606,51.3746443,-0.0945168,Caffè Nero,George Street,CR0 1LD,Caffè Nero
1895612804,51.5739658,-0.0736692,Montegino,,,
1912458918,51.3645703,-0.1179237,Waddon Cafe Restaurant,Purley Way,CR0 4RG,
1913487611,51.5301995,-0.1277044,British Library cafe,,,
1921962857,51.4648817,-0.1585961,Il Molino,Lavender Hill,SW11 5QH,
1927322109,51.5159706,-0.3019969,Steak on the Green,Haven Green,W5 2NX,
1933542601,51.3603622,0.0876833,Crescent Cafe,Crescent Way,BR6 9LS,
1934089828,51.5832083,-0.2269787,Andy's Restaurant,,,
1936857825,51.5891088,-0.0800997,Rose Cafe,,,
1936872574,51.4183263,-0.0725851,Brown & Green,Crystal Palace Station Road,SE19 2AZ,
1937398220,51.496677,-0.126169,Crussh Bar,Millbank,,
1941606902,51.5233467,-0.0932624,FWD:Coffee,Whitecross Street,,
1941635359,51.5090002,-0.2633275,Station Cafe,Churchfield Road,W3 6EG,
1943457002,51.6163629,-0.1770836,Starbucks,High Road,N12 8JR,Starbucks
1945670006,51.421114,-0.2076829,Starbucks,Wimbledon Hill Road,SW19 7NS,Starbucks
1945706778,51.4207599,-0.2067991,Joe & The Juice,Hartfield Road,SW19 3RU,Joe & The Juice
1949536811,51.5925197,0.026881,Lily's Indulgence,George Lane,,
1950751276,51.5926549,0.0261897,Little Woodford Cafe,George Lane,E18 1AD,
1951120429,51.5920984,0.027018,Waribashi,Station Approach,E18 1AG,
1962309616,51.498058,-0.119787,Shepherds Hall,Westminster Bridge Road,SE1 7EH,
1962952854,51.513443,-0.1179483,Caffè Nero,Kingsway,WC2B 6XG,Caffè Nero
1964275604,51.4586808,-0.1663648,Black Sheep Coffee,Northcote Road,SW11 1PA,Black Sheep Coffee
1964458538,51.5943737,0.024157,Cafe on the Lane,George Lane,E18 1AY,
1964534510,51.5935894,0.0250579,Soul Stop Cafe,George Lane,E18 1AY,
1973134938,51.5294466,-0.0877378,The Nile Cafe,Nile Street,N1 7RD,
1973224824,51.5073834,0.0634557,Costa,,,Costa
1973224855,51.5076471,0.062605,Unknown,,,
1973260578,51.5293569,-0.0884595,Stripes Cafe @ sixty one,Nile Street,N1 7RD,
1973953220,51.4397982,-0.1870302,Bean and Hop,Garratt Lane,SW18 4HN,
1974014913,51.4567555,-0.1941484,Black Sheep Coffee,Wandsworth High Street,SW18 4TQ,Black Sheep Coffee
1977682861,51.5145675,-0.0864453,Taylor St Baristas,,,
1983523837,51.6134549,-0.0750372,Costa,Sterling Way,N18 1QX,Costa
1983523847,51.6131786,-0.0746178,Souter Bros.,,,
1987144890,51.494712,-0.1306765,Ravello,Horseferry Road,SW1P 2AA,
1993188849,51.5850433,-0.2795635,Ragulan,Kingsbury Road,NW9 9HN,
1993188865,51.5851277,-0.279162,Shake Time,Kingsbury Road,NW9 9HN,
1996317882,51.5967356,-0.1944596,Inky's Café,,,
1998673258,51.517866,-0.1163249,Heytea,,,Heytea
2012077067,51.3917652,-0.1647131,Café Connect,,,
2015283620,51.513268,-0.2272134,Starbucks,Wood Lane,W12 7TU,Starbucks
2018583888,51.5073207,-0.0258605,Docklands Diner,Cannon Drive,E14 4AS,
2019120123,51.5273298,-0.0837243,Pitfield London,Pitfield Street,N1 6HB,
2019120189,51.5294108,-0.0836705,Muzzy's Cafe,Pitfield Street,N1 6BT,
2036576883,51.5148282,-0.3025014,Starbucks,,,Starbucks
2039163582,51.504426,-0.014849,Starbucks,Churchill Place,E14 5RB,Starbucks
2040986625,51.571843,-0.2234704,Costa,,,Costa
2043098445,51.3721662,-0.0999041,Clocktower Cafe,Katharine Street,CR0 1NX,
2048918707,51.5714364,0.0134812,Costa,Gainsborough Road,E11 1HT,Costa
2049355280,51.5182971,-0.07397,Fashion Sushi & Cafe,Fashion Street,E1 6PX,
2060167031,51.5411137,-0.1452538,Starbucks,Camden High Street,NW1 7BX,Starbucks
2075405382,51.5370325,-0.0613335,Saray Broadway Café,Broadway Market,E8 4QJ,
2076895444,51.3740443,-0.1023343,Cockneys Of Croydon,Frith Road,CR0 1TB,
2078729683,51.5139807,-0.3045589,Ginger & Moore,Springbridge Road,,
2080487468,51.5915326,-0.0061685,La Cafeteria,Forest Road,E17 4AT,
2080769463,51.5911441,-0.0079498,Picnic Sandwich Bar,Forest Road,E17 4JD,
2086937980,51.5935115,-0.0212144,La Delice in the Park,,,
2088746938,51.5821036,-0.0183708,Chaiiwala,Hoe Street,E17 9PP,Chaiiwala
2091280682,51.5924422,0.0284773,Fresh as a Daisy,Mulberry Way,E18 1EB,
2091367249,51.5910826,0.0290348,Casa Castelo,George Lane,,
2091367289,51.5914676,0.0285172,Creative Biscuit,George Lane,,
2102047369,51.5810211,-0.0329554,Milk#2,St James's Street,E17 7PJ,
2102786811,51.5119755,-0.1335372,Bubbleology,Rupert Street,,
2102888471,51.503752,-0.110042,Waterloo Café,Wootton Street,SE1 8TG,
2103297799,51.371128,-0.1001148,Crushed Bean,High Street,CR0 1QE,
2103297833,51.3724023,-0.1011032,Don's Cafe,Surrey Street,CR0 1RG,
2104693481,51.6419321,-0.0684781,La Baguette,,,
2106381757,51.3750385,-0.0930052,Costa,George Street,CR0 1LF,Costa
2106381762,51.376378,-0.0923678,AMT Coffee,George Street,CR0 1LE,AMT Coffee
2106381772,51.3741668,-0.0953744,Cafe Havana,George Street,CR0 1PE,
2106381782,51.3761128,-0.0924238,Pumpkin,George Street,CR0 1LE,Pumpkin
2106381783,51.3761206,-0.0930116,Puccino's,George Street,CR0 1LE,Pumpkin
2106381792,51.3763964,-0.0929785,Starbucks,George Street,CR0 1LE,Starbucks
2112419436,51.4702948,-0.2850316,The Pavilion Cafe and Clubhouse,,,
2122653029,51.5084102,-0.1084814,Caffè Nero,,SE1 9PH,Caffè Nero
2124570022,51.4549913,-0.0373054,Fred's,Brockley Road,SE4 2BY,
2124570136,51.4557191,-0.0367748,Arlo & Moe,Brockley Road,SE4 2BT,
2124572430,51.4544818,-0.0372683,Café Crofton Park,Brockley Road,SE4 2PH,
2125456433,51.374456,-0.1002652,Chai Corner,,,
2125456434,51.3743984,-0.1001771,Chili Chutney,,,
2125456439,51.3744112,-0.1004352,Divine's Cafe,North End,,
2125556773,51.5082503,0.018809,Caffe Fratelli,Western Gateway,E16 1XL,
2131592326,51.5229178,-0.1068502,Twenty Two to Twenty Six,,,
2138932132,51.4983969,-0.1340004,Snax,,,
2147835486,51.5963111,0.0214384,The Canteen Cafe,High Road,E18 2PA,
2172272190,51.4762491,-0.048009,Corner,New Cross Road,SE14 5DJ,
2184078818,51.5048101,-0.0572693,Cinnamon Coffee Shop,Wapping Lane,E1W 2RW,
2190000493,51.4828237,-0.3476518,Park Cafe,Thornbury Road,TW7 4QG,
2192615709,51.5326455,-0.1068955,Bill's Cafe Restaurant Store,White Lion Street,N1 9PD,
2217385863,51.4770638,-0.2860024,Cafe Macarong,Station Parade,TW9 3PZ,
2235613037,51.3629837,-0.0968291,A & N Brothers Cafe,Selsdon Road,,
2241877432,51.515757,-0.2047307,Coffee Plant,Portobello Road,W11 2EB,
2267445170,51.5820987,-0.0688508,Light Bite,Bernard Road,N15 4NE,
2273728573,51.5127366,-0.132205,Biju Bubble Teas,,,
2287177441,51.5816034,0.021082,Tea Room,,,
2292697248,51.5669569,-0.2288084,Reindeer Cafe,,,
2293020593,51.4645417,-0.1838934,Cake Boy,Juniper Drive,SW18 1TX,
2293528952,51.5990126,0.0504156,Pat's Cafe,,,
2294709598,51.55575,-0.336762,Brokengate Café,Greenford Road,UB6 0HY,
2304998587,51.4679626,-0.2092642,River Cafe,Station Approach,SW6 3UH,
2305425761,51.514426,-0.1608665,The Borough Barista,Seymour Street,W1H 7JH,
2308204765,51.3515787,0.0759454,Green Roof Café,,,
2308393949,51.5314833,-0.3366046,Everyone Active Cafe,Stockdove Way,UB6 8TJ,
2320400224,51.4227879,-0.1051664,Crown Cafe,Knight's Hill,SE27 0QT,
2320712138,51.5346188,-0.0771891,Chalet Cafe,Kingsland Road,E2 8AN,
2322099861,51.6165271,-0.1770908,Costa,High Road,N12 8PR,Costa
2323154015,51.5422376,-0.3958477,Coffee House,,,
2323768961,51.4801926,-0.0060071,Parkside Café,Romney Road,SE10 9NF,
2324256239,51.4975866,-0.13375,Ravello Coffe Company,Strutton Ground,,
2327367214,51.491324,-0.09789,Aobaba,Walworth Road,SE17 1JL,
2333131240,51.5477044,-0.1823871,Starbucks,Finchley Road,NW3 6LU,Starbucks
2333320752,51.5840788,-0.1002158,Chakra,Green Lanes,N8 0RG,
2341125346,51.6156626,-0.1764988,Caffè Nero,High Road,N12 9QH,Caffè Nero
2341125364,51.6140826,-0.1770096,Boulagerie Joie de Vie,Ballards Lane,N12 8LJ,
2342065258,51.5657487,-0.1084111,Unknown,,,
2343903782,51.5047321,-0.1134009,Unknown,Charlie Chaplin Walk,SE1 8XR,
2344435193,51.4180303,-0.0833147,Café Thing,Bowyers Yard,SE19 3AN,
2345097818,51.508983,-0.130433,O'be Joyful,,,
2345097820,51.509073,-0.130491,Sandwhich Express,,,
2347512539,51.5895605,-0.0395059,Demo Cafe,Blackhorse Lane,E17 6HJ,
2347807474,51.6322568,-0.3082917,Just Eat,,,
2356975543,51.3303457,-0.0921904,Marmaris Cafe,Mitchley Avenue,CR2 9HN,
2375118833,51.4826195,-0.0188905,Coffee Island,Glaisher Street,SE8 3ET,
2376918899,51.5088581,-0.1252964,Coffee & Real eating co.,Strand,WC2R 0QU,Starbucks
2389937597,51.5004367,-0.1882937,Ottoemezzo,Thackeray Street,W8 5ET,
2395017742,51.4263621,-0.0542607,Starbucks,,,Starbucks
2396834472,51.559471,-0.1166063,Le Croissant D'or,,,
2406756169,51.5723628,-0.2948556,Boston Peri Peri,Preston Road,HA3 0PS,
2406756172,51.5718456,-0.2949126,Costa,Preston Road,HA3 0PS,Costa
2406756185,51.5705841,-0.2949584,kokö dessert,Preston Road,HA9 8NF,
2406756187,51.5720613,-0.2948886,Mayas Chai,Preston Road,,
2406756190,51.5715346,-0.2949332,Patisserie Romana 2,Preston Road,HA9 8PE,
2408329242,51.5173691,-0.1405203,Internet Cafe,Little Portland Street,,
2410986575,51.4411921,-0.0612974,The Horniman Cafe,,,
2412702491,51.5228946,-0.159545,Le-Vap Vape and Shisha Bar,Melcombe Street,,
2414012810,51.4996087,-0.1309482,Café Fresco,Tothill Street,SW1H 9LH,
2414012815,51.4990829,-0.13356,Starbucks,Broadway,SW1H 0AZ,Starbucks
2418330327,51.4556758,-0.3061909,Magnolia Tree Cafe,Clevedon Road,TW1 2TY,
2420135803,51.4363032,-0.0553165,Unknown,,,
2425153366,51.3631831,-0.1850481,The Brunch Bar,Lind Road,SM1 4PJ,
2429824379,51.4275918,-0.1676861,Starbucks,Mitcham Road,SW17 9NA,Starbucks
2434611708,51.5192788,-0.1551622,Canaletto Bar,Chiltern Street,,
2435295098,51.4957034,-0.2756555,Starbucks,,,Starbucks
2437755944,51.6488447,-0.1293498,Gamberini,Bramley Road,N14 4XA,
2445340510,51.6340982,-0.053427,Ponderosa,"Hertford Road, Edmonton",,
2445347225,51.6329827,-0.0543012,Joe's Cafe,"Hertford Road, Edmonton",,
2448110819,51.5446867,-0.0085927,Love Coffee,International Way,E20 1YY,
2450210564,51.6231981,-0.0614166,Unknown,Fore Street,N9 0NR,
2451272956,51.6254841,-0.0569461,N9 cafe,Edmonton Green,,
2451314295,51.6342711,-0.0527113,Traditional Turkish Coffee House,Hertford Road,,
2453732814,51.6124069,-0.0651459,Maajo,Fore Street,,
2454132952,51.4559448,-0.1503262,Honest Tom's,Windmill Drive,SW4 9AP,
2456520028,51.5029422,-0.1192022,Zen Cafe,,,
2456547113,51.5460307,-0.4787689,Costa,High Street,UB8 1JZ,Costa
2457229991,51.5262152,-0.0768401,Paper & Cup,Calvert Avenue,E2 7JP,
2458237027,51.5306688,-0.1260797,Le Pain Quotidien,Euston Road,N1C 4QL,Le Pain Quotidien
2461453370,51.4186506,-0.2967931,Boho,Kings Road,KT2 5JF,
2462839812,51.4583315,0.0591496,Westmount Cafe,Westmount Road,SE9 1XA,
2464027480,51.4511398,0.0495002,Top Chef Cafe,Eltham High Street,SE9 1DA,
2466428731,51.4952187,-0.1442373,Nero Express,Victoria Place,SW1W 9SJ,Caffè Nero
2466728999,51.5047962,-0.0197904,Starbucks,Canada Square,E14 5AA,Starbucks
2467844948,51.5210147,-0.0928884,Beech Street Cinema Cafe,Silk Street,EC2Y 8DS,
2478195211,51.4559364,0.0510873,Marmaris Cafe,Well Hall Road,SE9 6SN,
2481448203,51.4579275,0.0497943,Eltham Cafe & Restaurant,Well Hall Road,SE9 6SZ,
2483622495,51.4500233,0.0519476,Coco’s Café and Espresso Bar,Court Yard,SE9 5PR,
2485002537,51.4505598,0.0539727,Delicio,Eltham High Street,SE9 1BW,
2485002552,51.4504106,0.0543143,Tasty Cafe,Passey Place,SE9 5DA,
2485569974,51.4499518,0.053974,Raymonds Pie & Mash,Passey Place,SE9 5DQ,
2493885143,51.5799064,-0.3350715,OB Caffé Pizzeria,,,
2497930244,51.4949073,-0.1431075,Starbucks,Terminus Place,SW1V 1JT,Starbucks
2499611143,51.4951336,-0.1438213,knot,,,
2501851386,51.4611666,-0.138402,Brickwood,,,
2507272287,51.5257186,-0.030952,Gardiner's,Mile End Road,E3 4PH,
2510262786,51.501031,-0.2860542,Wild Bean Cafe,,,Wild Bean Cafe
2517463841,51.5705633,-0.2946295,Parkway Patisserie,Preston Road,,
2519299704,51.3894784,-0.1064266,Oasis Cafe,Bensham Lane,CR7 7ES,
2519755216,51.4626289,-0.0090336,Cafe Delight,Belmont Hill,SE13 5AU,
2528652080,51.374242,-0.1002807,Greenhill Food Hall,,,
2528919960,51.514928,-0.176547,Cafe Dylan Dog,Craven Road,W2 3BP,
2529518839,51.5454505,-0.1033913,Starbucks,Upper Street,N1 1RU,Starbucks
2536636334,51.509701,-0.123557,Black Sheep Coffee,,WC2R 0QE,Black Sheep Coffee
2536905242,51.518234,-0.125795,Starbucks,,,Starbucks
2537248035,51.508483,-0.126319,The Breadline,,,
2537911335,51.4704016,-0.2151703,Drawing Room Café,Bishop's Avenue,SW6 6EA,
2546273069,51.4190466,-0.1770205,Coffee in the Wood,High Street Colliers Wood,SW19 2JF,
2560722271,51.4949623,-0.1732732,Farm Girl Café,Exhibition Road,,
2567672761,51.4532518,-0.1027973,Lulu's,,,
2569471899,51.5856909,-0.1830067,Sherrards bakery,,,
2569539943,51.5814148,-0.3387774,Starbucks,,HA1 1HS,Starbucks
2572892149,51.4368054,-0.203826,Wimbledon Park Cafe,Home Park Road,SW19 7HR,
2574301884,51.5101498,-0.0844172,Black Sheep Coffee,Botolph Alley,EC3R 8DR,Black Sheep Coffee
2586986610,51.5506198,-0.117776,Cally Cafe,Caledonian Road,N7 9RP,
2609621291,51.5812803,-0.3352024,Caffè Nero,,,Caffè Nero
2609621300,51.5810038,-0.3348865,Harry's Cafe,Havelock Place,HA1 1LJ,
2609621308,51.5812775,-0.3349468,treatz,,,
2610004462,51.5630774,-0.3558067,CaffCafe,Northolt Road,HA2 8EE,
2610004468,51.5641504,-0.3544185,Costa Coffee,Northolt Road,HA2 8DY,Costa
2611269665,51.5538856,-0.0451346,Stone Bros Cafe,Chatsworth Road,E5 0LH,
2611368371,51.5134089,-0.1421937,Sunflower Cafe,Pollen Street,W1S 1NA,
2611533852,51.5432724,-0.1549642,Chloe's Espresso,,,
2617821332,51.5259157,-0.1339734,Wellcome Collection Cafe,Euston Road,NW1 2BE,
2622503278,51.5185621,-0.1242655,London Review Cake Shop,Bury Place,WC1A 2JL,
2623487670,51.3656541,-0.1939643,Tazza,High Street,SM1 1NR,
2623487691,51.3636888,-0.1935107,Caffè Nero,High Street,SM1 1JF,Caffè Nero
2624082363,51.5168321,-0.1189284,Redemption Roasters,Lincoln's Inn Fields,WC2A 3JF,Redemption Roasters
2624165040,51.5266637,-0.1242588,Patisserie Deux Amis,Judd Street,WC1H 9QT,
2627107120,51.3634257,-0.1933797,Tea San - Taiwanese Bubble Tea,,,
2627120354,51.3652577,-0.1937636,Costa,High Street,SM1 1NL,Costa
2627120355,51.3657046,-0.1935703,Peckish Cafe,,,
2629340948,51.5896672,0.0818315,Maison Fraise,High Street,IG6 2DQ,
2629340952,51.589139,0.0814361,Marino's Cafe,High Street,IG6 2DF,
2632761639,51.52112,-0.0791943,My Pasta Bar,Bishopsgate,EC2M 3AB,
2632761642,51.5210136,-0.0793126,Tsuru,Bishopsgate,EC2M 3AB,
2642857235,51.5138768,-0.0866975,Rosslyn,Royal Exchange,EC3V 3LP,
2642857238,51.5113198,-0.0873492,Tossed,King William Street,EC4N 7BP,
2642895015,51.5166023,-0.0878151,Cafe Manon,,,
2642895032,51.5160723,-0.0872808,Starbucks,Throgmorton Avenue,EC2N 2DL,Starbucks
2645677297,51.4381864,-0.1555445,Dee Light Bakery,Ritherdon Road,SW17 8QD,
2645846876,51.430387,-0.1557094,The Kitchen Table,,,
2655991154,51.5570974,-0.2825841,Treatz Dessert Parlour,Wembley Park Boulevard,HA9 0FD,
2656000111,51.556405,-0.2841012,Caffè Nero,Wembley Park Boulevard,HA9 0FD,Caffè Nero
2656022640,51.5560979,-0.2837875,Costa,Wembley Park Boulevard,HA9 0TG,Costa
2663943029,51.5191859,-0.0888924,Costa,Ropemaker Street,EC2Y 9AW,Costa
2664132506,51.4860687,-0.1210729,Kennington Lane Cafe,Kennington Lane,SE11 5QY,
2666268946,51.5170203,-0.0641429,Motown Desserts,Fieldgate Street,E1 1ES,
2676715144,51.48673,-0.2211518,Den London,,,
2686939766,51.5840025,-0.0726284,Costa,High Road,N15 4RR,Costa
2694538590,51.5142776,-0.3197553,Cafe Lemoo,,,
2707300706,51.4883169,-0.111049,Cafe 303,Kennington Road,SE11 4QE,
2707328020,51.4836614,-0.1110819,Collective Cakes,Kennington Park Road,SE11 4DA,
2711239366,51.5795689,0.0051198,Boat House Kiosk,Whipps Cross Road,E11 1NJ,
2727229945,51.4808228,-0.1111369,Mimi's Deli,Brixton Road,SW9 6BU,
2738840351,51.476838,-0.0006877,Astronomy Café,Blackheath Avenue,SE10 8XJ,
2743771141,51.3993899,-0.0185052,Sponge Kitchens Ltd,Wickham Road,BR3 6QH,
2743771142,51.3997406,-0.0185123,Parc Franglais,Wickham Road,BR3 6QH,
2749844993,51.5221732,-0.0463128,Cafe au Lait,Globe Road,E1 4DU,
2751689733,51.4818054,-0.1127182,Sexi Coffi,Kennington Park Road,SE11 5SY,
2753767385,51.4806846,-0.1111974,Cable Cafe,Brixton Road,SW9 6BU,
2754581096,51.5196883,-0.093761,Barbican Foodhall,,,
2763549316,51.5128707,-0.1747825,The Bathurst Deli,Bathurst Street,W2 2SD,
2764261389,51.4745571,-0.1553092,Capitan Corelli,Battersea Park Road,SW11 4LY,
2769268430,51.5142718,-0.1748431,Warisan Cafe,Sussex Gardens,,
2778358255,51.521384,-0.1434842,Starbucks,Great Portland Street,W1W 5PA,Starbucks
2803507779,51.5446357,-0.019849,The Copper Box Arena,,E20 3BS,
2808877100,51.498504,-0.1984565,Cafe de Fred,Earl's Court Road,,
2808877310,51.4976466,-0.1979376,Le Monde,Earl's Court Road,,
2823668217,51.5151402,-0.1222601,Ideal,,,
2835454201,51.4891792,-0.1366355,The Little Bread Pedlar,Moreton Street,,
2836691935,51.5226998,-0.1595104,Dorset Brasserie,Melcombe Street,NW1 6AH,
2848395202,51.4538539,-0.1406042,CafePod Coffee,Abbeville Road,SW4 9LA,
2867163739,51.5418884,-0.1800355,Zara Cafe,,,
2879892213,51.5135776,-0.3029694,Blank Street Coffee,,,Blank Street Coffee
2889055601,51.5255328,-0.0874408,Harry's Place,,,
2889967903,51.4636213,-0.3021508,Starbucks,Kew Road,TW9 2NQ,Starbucks
2898949673,51.5147635,-0.0915874,City Càphê,Ironmonger Lane,EC2V 8EY,
2904553101,51.518779,-0.123939,Café Le Cordon Bleu,,,
2905787401,51.5109015,-0.1369984,Petit Déjeuner,,,
2918724801,51.49985,-0.106909,Mama's Cafe,Waterloo Road,SE1 8XH,
2925135841,51.4598853,-0.0111987,Cafe Inn,Lewisham High Street,SE13 6AA,
2925789592,51.4950128,-0.0106519,Café Forever,Glengall Grove,E14 3NE,
2939380836,51.499176,-0.138098,Happy Hatty,Buckingham Gate,SW1E 6PD,
2943078901,51.4905111,0.0124145,Costa,Peninsula Retail Park,SE10 0QJ,Costa
2954618633,51.5141467,-0.1604047,Crusssh,Bryanston Street,,
2956478027,51.4771754,-0.146126,Bridge the Gap Cafe,Battersea Park Road,SW8 4BX,
2969164036,51.6563846,-0.1397322,Southgate Hockey Centre Bar,,,
2969809394,51.5484606,-0.1181778,Kafeteryam,Caledonian Road,N7 9BA,
2969809395,51.5479268,-0.1182129,Costa,,,Costa
2970155233,51.527627,-0.129332,Costa,Duke's Road,WC1H 9PJ,Costa
2972228374,51.52619,-0.1369017,Speedy's,North Gower Street,NW1 2NJ,
2981307042,51.5779523,-0.3186128,Gateway Cafe,,,
2997557693,51.4336598,-0.1038567,O' Girasol,Norwood Road,SE27 9AA,
2997557694,51.4337738,-0.1038693,Blackbird Bakery,Norwood Road,SE27 9AA,
2997557695,51.4332816,-0.1039106,SWEET CAROLINA,Knight's Hill,SE27 0HY,
3005231393,51.4125,-0.284293,Nev’s Coffee,,,
3010425536,51.5157413,-0.0857481,SOHO Coffee co.,Austin Friars,EC2N 2HE,
3011417281,51.5235886,-0.1415746,The Old Dairy Cafe,Conway Street,W1T 6BW,
3014718878,51.4344924,-0.3755464,Starbucks,Uxbridge Road,TW12 1AW,Starbucks
3019987537,51.4593799,-0.2114039,Costa,Upper Richmond Road,SW15 2TT,Costa
3020692317,51.3811532,-0.2831662,Root 52 Cafe,Tolworth Broadway,KT6 7HR,
3021027427,51.6698218,-0.0686901,Nice Green Café,Forty Hall,EN2 9HA,
3022789592,51.5312276,-0.0760972,Unknown,,,
3023395356,51.6478167,-0.1683437,Caffe Granello,East Barnet Road,,
3033760087,51.550228,-0.0457275,Costa,Homerton Row,E9 6SR,Costa
3034656253,51.4189976,-0.0795421,Boyce Da Roca,,,
3041390966,51.4763549,-0.1176489,7Gr Coffee Studio,Clapham Road,SW9 0HP,
3043305152,51.3853314,-0.2522755,Indulgence Café,Malden Road,,
3046578546,51.4624181,-0.1154476,Caffe Nero @ Morleys,Brixton Road,SW9 8EH,Caffè Nero
3048229636,51.463183,-0.1129038,Station Cafe,Brixton Station Road,SW9 8PE,
3048890134,51.5812025,-0.1235061,The Haberdashery,,,
3049582320,51.4825315,-0.113888,The Ovalhouse Cafe,Kennington Oval,SE11 5SW,
3049592593,51.4801071,-0.1115892,Moonstar Cafe,Brixton Road,SW9 6BU,
3051762446,51.5206485,-0.1217884,Unknown,,,
3051879990,51.4538438,-0.1193391,Marie Stopes Cafe,Raleigh Gardens,SW2 1AB,
3053799644,51.3713294,-0.2091962,Savoy Cafe,,,
3058754844,51.5121402,-0.1383013,Soho Grind,Beak Street,,
3061368740,51.492093,-0.118698,The Ragged Canteen At Beaconsfield,Newport Street,SE11 6AY,
3061389923,51.5047874,-0.1133912,Imax Cafe,Charlie Chaplin Walk,SE1 8XR,
3065534057,51.4619427,-0.1677409,Blank Street Coffee,St. John's Road,SW11 1PS,Blank Street Coffee
3070527433,51.507494,-0.139746,Franco's,Jermyn Street,,
3071849134,51.5165407,-0.1390642,Vital Ingredient,Eastcastle Street,,
3079274701,51.4567212,-0.1629556,Unknown,Webb's Road,SW11 6RY,
3080553851,51.5278206,-0.1248493,Half Cup,Judd Street,WC1H 9NT,
3081406304,51.4708953,-0.1700093,Flag Bikes & Cafe,Battersea Park Road,SW11 3BX,
3081640239,51.517867,-0.0763379,Kastner and Ovens,Frying Pan Alley,E1 7HS,
3085263818,51.5167676,-0.1284675,Joe & The Juice,,,Joe & The Juice
3085263819,51.5167554,-0.1285798,Costa,New Oxford Street,WC1A 1HB,Costa
3085263821,51.5166847,-0.1291004,Blank Street Coffee,New Oxford Street,WC1A 1HD,Blank Street Coffee
3086696342,51.5857818,-0.0935213,Rose Cafe,,,
3086696345,51.587271,-0.1007504,BG Zakuska,Wordsworth Parade,N8 0SJ,
3090686013,51.4554202,-0.164577,Pottery Café,Northcote Road,,
3090725390,51.4558379,-0.1652889,Pintus,Northcote Road,SW11 6QZ,
3093870629,51.5189094,-0.0763882,Nha-Mor,Crispin Street,E1 6HQ,
3098608835,51.5078159,-0.1265174,The Grand Caffè,Strand,,
3102743662,51.4615019,-0.1672628,Love Brownies Clapham JCT,St. John's Road,SW11 1QX,
3102743663,51.4615506,-0.1672753,T4 Tea For U,St. John's Road,SW11 1QX,T4
3104461619,51.5924012,0.23325,Pulp Kitchen,,,
3111335327,51.5885059,-0.4291369,Lakeside Cafe,,,
3114920159,51.4902994,-0.3522173,Stables Café,,TW7 4RB,
3118489835,51.459707,-0.0664102,Cafe G,Peckham Rye,SE22 9QA,
3130159374,51.5044954,-0.0954961,kitchen@The Bridge,,,
3137506957,51.6465305,-0.0485582,Premier Cafe,,,
3141558546,51.515253,-0.1179934,Café 54,Lincoln's Inn Fields,WC2A 3LJ,
3142640836,51.5139278,-0.1156045,The Daily Grind,Clement's Inn,,
3147137124,51.511876,-0.0822405,Vital Ingredient,Cullum Street,EC3M 7JJ,
3147137125,51.5120791,-0.0825066,Curators Coffee,Cullum Street,EC3M 7JJ,
3159073264,51.5109081,-0.1268618,Koshari Street,St. Martin's Lane,WC2N 4EA,
3160696851,51.4638124,-0.1702938,Starbucks,,,Starbucks
3166217339,51.464464,-0.1678394,Café Olé,Falcon Road,SW11 2PD,
3170310062,51.4315416,-0.1042732,Pintadera,Knight's Hill,SE27 0JD,
3170375277,51.4312202,-0.1040988,Otter,Knight's Hill,SE27 0HS,
3174731014,51.6128767,-0.1582378,Diony & Adam,Friern Barnet Road,N11 3DA,
3178570200,51.4655653,-0.2138344,Putney Pantry,Putney High Street,SW15 1SN,
3181818965,51.4647574,-0.171762,Caffè Nero Express,Saint John's Hill,SW11 2QP,Caffè Nero
3185132863,51.5180244,-0.0271455,Bow Brew Cafe,St Paul's Way,E3 4AJ,
3186425172,51.4950281,-0.1212294,Riverside Cafe,Albert Embankment,SE1 7SG,
3196209234,51.5406972,-0.3241837,Café Rendezvous,Horsenden Lane South,,
3196925226,51.5280777,-0.3187345,Win to Win Café,,,
3197327379,51.5173668,-0.0827717,Costa,Liverpool Street,EC2M 7PD,Costa
3202891303,51.4763947,-0.2041522,Nomad Books Café,,,
3204582879,51.5272529,-0.1291011,The Place Café,,,
3205494804,51.5575624,-0.0901679,Ferratelle D'oro,Green Lanes,N16 9DL,
3206389319,51.5212703,-0.0789223,Attendant,Folgate Street,E1 6DB,Attendant
3216496084,51.5332382,-0.324301,Cafe and Bakery,,,
3217478768,51.4997069,-0.1137849,Four Corners,,,
3217493261,51.5714342,-0.0961337,Dobar,Green Lanes,N4 1BX,
3217520261,51.5887003,-0.0726397,Charlie's Cafe,Philip Lane,N15 4JB,
3221481817,51.452974,-0.1040876,Crunch,Dulwich Road,SE24 0NG,
3223507049,51.4930058,-0.1490416,Black Sheep Coffee,Elizabeth Street,SW1W 9RB,Black Sheep Coffee
3223535746,51.5344536,-0.3333726,Medway Fish and Chips,Medway Parade,,
3223630731,51.5510566,-0.3500853,YummYpl,Oldfields Circus,,
3224182244,51.4967767,-0.1360237,Iris & June,Howick Place,SW1P 1WG,
3224669473,51.5197262,-0.1350801,Cona,Goodge Street,,
3228816696,51.5523095,-0.0854937,Flying Frenchman,Albion Road,N16 9PS,
3230430766,51.3984927,-0.1001305,The Studio Coffee Bar,,,
3237045518,51.4509478,-0.189846,Sultans Cafe,Garratt Lane,SW18 4DP,
3238108264,51.5504512,-0.3392372,Vonns Sandwich Bar,Greenford Road,,
3238234909,51.4886523,-0.2880685,Costa,Kew Bridge Road,TW8 0FJ,Costa
3242877682,51.5510823,-0.3390883,Veeno,Greenford Road,,
3246117763,51.5288947,-0.1199935,Costa,Gray's Inn Road,WC1X 8QT,Costa
3246895686,51.5368629,-0.2064328,Dark Habit Coffee,Salusbury Road,NW6 6NU,
3247084417,51.5314531,-0.1207581,Liliana Coffee,,,
3247856861,51.5150332,-0.337206,Cuckoo Café,Greenford Avenue,W7 1LJ,
3248482325,51.4989456,-0.0994588,Sapore Coffee Bar,Borough Road,SE1 1DN,
3259141292,51.5465001,-0.4801107,Costa,,,Costa
3260042855,51.5133684,-0.3017879,Arise Coffee Roasters,Oak Road,W5 3SS,
3260045871,51.5126474,-0.3043439,Costa,,W5 5JY,Costa
3260045872,51.5131298,-0.3027012,Auntie Ann's,,,
3260045881,51.5118989,-0.302836,Mama Mia,St Saviour's Walk,W5 5JY,
3260601466,51.5085618,-0.3381088,Big Bites Cafe,,,
3260660645,51.5076406,-0.3375062,The Little Wonder,Boston Road,,
3260831142,51.5458715,-0.4810136,Popiandy's,,,
3260845564,51.508216,-0.47341,Griddle Cafe,Station Road,UB7 7DD,
3260878162,51.6418071,-0.0700829,Bush Hill Park Cafe,,,
3260879715,51.6425966,-0.0675931,George's,,,
3261542725,51.3920769,0.0012293,Costa,Westmoreland Road,BR2 0TZ,Costa
3261542730,51.3923463,0.0019374,Elianos,,,
3269724929,51.5113252,-0.0829311,WatchHouse,Fenchurch Street,EC3M 3BD,WatchHouse
3280271909,51.5487263,-0.0762355,Kaffa Coffee,Gillett Square,N16 8AZ,
3289937603,51.509019,-0.3380479,Clock Tower Cafe,Uxbridge Road,W7 3SP,
3291295930,51.4730458,-0.1622437,Caffettino,Battersea Park Road,SW11 4ND,
3306596294,51.5106118,-0.0854066,Blank Street Coffee,Eastcheap,EC3M 1AE,Blank Street Coffee
3310086151,51.5317441,-0.1266408,EL&N,,,EL&N
3310086153,51.530612,-0.1260403,Bread & Truffle,,,
3310086154,51.5305318,-0.1259753,Paul Express,,,Paul
3310091767,51.5316288,-0.1265531,Grind,,,Grind
3315565394,51.4887131,-0.1226347,Madeira Café,Albert Embankment,SE1 7TL,
3315606198,51.4680642,-0.1705315,Al's Place Cafe,Falcon Road,SW11 2PG,
3320905096,51.4456137,-0.0207633,Stage Door Cafe,Catford Broadway,SE6 4SN,
3321804859,51.3950342,-0.3078596,The French Tarte,Maple Road,KT6 4AW,
3331975801,51.4649108,-0.1810546,York Cafe,York Road,SW11 3SJ,
3334177782,51.5165844,-0.0855074,Caffè Nero,London Wall,EC2M 5NG,Caffè Nero
3335138107,51.5108925,-0.0870048,Costa,Cannon Street,EC4N 6AS,Costa
3338322648,51.4576308,-0.1842573,Press,East Hill,SW18 2QE,
3338325134,51.4557571,-0.189004,Cafe Fleur,St Anns Hill,SW18 2RT,
3338325192,51.4577377,-0.1836665,Huguenots Rendezvous,Huguenot Place,SW18 2EN,
3340674786,51.5143931,-0.0985154,Artigiano,Paternoster Square,EC4M 7DX,
3342024346,51.5318016,-0.3499809,Big Boys Cafe,Greenford Road,UB6 8RE,
3353955813,51.3943765,-0.2384546,Blossom & Brew,,,
3353970560,51.3946008,-0.2386613,Cafe Rich Point,,,
3353970564,51.3948042,-0.2382339,Ecklee Grill,West Barnes Lane,KT3 6JF,
3357569148,51.5292893,-0.1326653,Coffee To The People,,,
3357922881,51.5005754,-0.1626011,Starbucks,,,Starbucks
3357922882,51.5074067,-0.1425589,Starbucks,,,Starbucks
3357922883,51.5139462,-0.149423,Starbucks,,,Starbucks
3357922884,51.5145593,-0.1439644,Starbucks,Hanover Square,,Starbucks
3357923671,51.4990139,-0.1644494,Cafe Erol,Brompton Road,,
3357928296,51.4998515,-0.1635908,Caffe Concerto,Brompton Road,SW3 1ER,
3357928297,51.4990219,-0.1651581,Caffè Nero,Brompton Road,,Caffè Nero
3357928298,51.5071851,-0.143285,Kwant Mayfair,Stratton Street,,
3357928300,51.4967978,-0.168547,Café Vienna,Brompton Road,,
3357928312,51.4985405,-0.1661417,Chapati & Karak,Brompton Road,,
3357928614,51.4984883,-0.1662565,Feya,Brompton Road,SW3 1HX,
3357928631,51.4966437,-0.1688399,L'Eto,Brompton Road,,
3357928632,51.4966961,-0.1687575,Chaiiwala,Brompton Road,,
3357928797,51.4979919,-0.1672219,360 Lounge,Brompton Road,,
3357928853,51.5174295,-0.1309123,Crepe Coffee & Chai,Tottenham Court Road,W1T 7RF,
3362467172,51.4671756,-0.1702091,Dashen Cafe,,,
3362469001,51.4745967,-0.1550918,Feedwell Cafe,Battersea Park Road,SW11 4LY,
3362470517,51.4712601,-0.1690492,Park Road Kitchen,Battersea Park Road,SW11 3BX,
3371176984,51.4789309,-0.0259573,The Waiting Room,Deptford High Street,SE8 3PQ,
3373898076,51.4745176,-0.1555267,Kapihan,Battersea Park Road,SW11 4LY,
3373963765,51.4770582,-0.1463935,Unknown,Battersea Park Road,SW8 4BU,
3373963768,51.4745703,-0.1552368,Gigi Ices Ltd,Battersea Park Road,SW11 4LY,
3375577561,51.4770073,-0.1465021,The Power Station,Battersea Park Road,SW8 4BU,
3375577765,51.4742991,-0.1534121,Vibes Battersea,Battersea Park Road,SW11 4LX,
3377584881,51.4858483,-0.1226638,Costa,South Lambeth Road,SW8 1SS,Costa
3382086490,51.4715396,-0.1682365,Cafe Blanca,Battersea Park Road,SW11 3BU,
3382089157,51.4769528,-0.14662,Mike's Kitchen,Battersea Park Road,SW8 4BU,
3382089162,51.4716939,-0.167607,Il Molino,Battersea Park Road,SW11 3BT,
3384334002,51.521489,-0.0754491,Costa,Commercial Street,E1 6AZ,Costa
3388587930,51.5775516,-0.10623,But First Coffee,Quernmore Road,N4 4QP,
3390024492,51.4678815,-0.209307,Doctor Espresso,Station Approach,SW6 3UH,
3393243417,51.5520534,0.2826156,Unknown,,,
3396867138,51.6477812,-0.1317914,The Artisan,Bramley Road,,
3398910286,51.517897,-0.1177407,Adobo,High Holborn,WC1V 6LS,
3404290893,51.5018424,-0.1582998,The Knightsbridge Cafe,,,
3404310493,51.4987649,-0.1570479,L'Eto,West Halkin Street,,
3426008568,51.5293782,-0.0610867,The Common E2,Old Bethnal Green Road,E2 6QA,
3437615437,51.3580767,-0.2147841,Tasha's Tearoom,High Street,SM3 8RW,
3447385082,51.4998106,-0.1976425,Phillies Cafe,Phillimore Gardens,,
3447788454,51.4664775,-0.1694141,Piggies Snack Bar,Falcon Road,SW11 2PE,
3450884616,51.4723154,-0.1913942,Bon Bon,Wandsworth Bridge Road,,
3451272091,51.4130475,0.1369814,Honeydale Farm cafe,Maidstone Road,DA14 5AW,
3453579365,51.470101,-0.1725033,Jack's Place,,,
3453579366,51.4701143,-0.1723986,Tatlers Cafe & Restaurant,York Road,SW11 3QA,
3454065865,51.5472587,-0.0743505,Save The Date,Abbot Street,E8 3DP,
3457361810,51.4991875,-0.1382016,Crumpets,Buckingham Gate,SW1E 6PD,
3457361812,51.4991994,-0.137895,Alma,,,
3461237568,51.4736019,-0.1607116,Jimmy Griddle,Battersea Park Road,SW11 4ND,
3461553681,51.5165215,-0.0786438,Planet Organic,Devonshire Square,EC2M 4AE,
3469144362,51.6290469,-0.0981857,Starbucks,,,Starbucks
3469151252,51.5136046,-0.1180694,Costa,Kingsway,WC2B 6XF,Costa
3469593504,51.5209027,-0.0752626,WatchHouse,Commercial Street,E1 6BJ,WatchHouse
3471126065,51.5150216,-0.0719241,Black Sheep Coffee,Leman Street,E1 8FA,Black Sheep Coffee
3473952410,51.4636149,-0.3017048,Butter Beans,Kew Road,TW9 2ND,
3475690376,51.5213712,-0.0188298,Devon's Cafe,Devons Road,E3 3QX,
3476186440,51.4629964,-0.3020968,Costa,The Quadrant,TW9 1DN,Costa
3487811106,51.5101085,-0.2178543,Courtyard Cafè,,,
3497324073,51.5355476,-0.1032413,crepeaffair,,,
3501004860,51.5458173,-0.1918458,The Sanctuary Café,Sherriff Road,NW6 2AP,
3501030048,51.5475357,-0.191147,8 oz,West End Lane,NW6 2LX,
3509619427,51.5226901,-0.1628634,AMT Espresso,Melcombe Place,NW1 6JJ,
3509620062,51.522427,-0.1635335,Starbucks,,,Starbucks
3511215515,51.5170577,-0.1429612,The Gallery,Regent Street,,
3524342342,51.5168046,-0.1474713,Back on Track,Wimpole Street,,
3531707778,51.4629045,-0.3009027,Puccino's,Kew Road,TW9 2NA,
3535343045,51.4478732,-0.4104675,Puccino's,,,
3543832661,51.4630242,-0.3011653,Puccino's,Kew Road,TW9 2NA,
3547298140,51.5158479,-0.1878048,Arro,Bishop's Bridge Road,W2 6BG,
3547373372,51.5562113,-0.1117861,Broccoli,Hornsey Road,,
3547691793,51.5198085,-0.1800994,Beany Green,Sheldon Square,,
3547713793,51.5322249,-0.2329866,Rossio Grill,Harrow Road,NW10 5NL,
3550615596,51.6088194,-0.0404878,Bloqs Kitchen,,,
3555182992,51.450803,0.0126443,Lee Cafe,Burnt Ash Road,SE12 8RA,
3555203730,51.4525693,0.0054185,Top Chef Cafe,Manor Lane,SE12 8LT,
3555204040,51.4516165,0.0055231,Milk,Manor Lane,SE12 8LP,
3555204294,51.4513106,0.0056867,Manor Cafe,Manor Lane,SE12 8LP,
3557236674,51.512299,-0.1309766,Héfaure,Shaftesbury Avenue,W1D 5EH,
3559199937,51.4056038,-0.3388537,Tiltyard Café,Hampton Court Road,KT8 9AP,
3567118898,51.5043704,-0.0817713,Harris + Hoole,Tooley Street,SE1 2RT,Harris + Hoole
3567118899,51.5042201,-0.0815541,Costa,Tooley Street,SE1 2RS,Costa
3568531296,51.3376989,-0.1154094,Lupita Coffee House,High Street,CR8 2AA,
3569159810,51.3387982,-0.1162598,O Farol,Brighton Road,CR8 2BP,
3569256893,51.3390892,-0.1163475,Star Express,Brighton Road,CR8 2LP,
3573963398,51.5210105,-0.1833511,The Waterside Cafe,,,
3578639802,51.5185802,-0.1788308,Colicci Street,,,Colicci
3579105051,51.6558255,-0.0304167,Royal Star Cafe 2,Green Street,,
3579255528,51.6487242,-0.0308776,Sandwich Bar,,,
3579412480,51.526389,-0.1082818,Briki,,,
3589831010,51.5012973,-0.1043523,Costa,Blackfriars Road,SE1 8EZ,Costa
3599454168,51.4414437,-0.3448866,Don's Coffee,Hampton Road,TW2 5QE,
3609864448,51.5089202,-0.1274819,Muriel's Kitchen,,WC2N 5DN,
3609864449,51.5091122,-0.127509,National Portrait Gallery Cafe,,,
3612921136,51.5168425,-0.120245,Truedan,Kingsway,WC2B 6PA,
3623969784,51.5183118,-0.0725878,Marangoni by La Pietra,Fashion Street,E1 6PX,
3627916416,51.5154707,-0.2045879,Caffè Nero,Portobello Road,,Caffè Nero
3631210990,51.4965155,-0.14368,Black Sheep Coffee,Victoria Street,,Black Sheep Coffee
3632715081,51.5193496,-0.0577368,Coffee Republic,Whitechapel Road,E1 1BJ,Coffee Republic
3637713284,51.5164828,-0.1416198,Kiss the Hippo,Margaret Street,W1W 8SG,
3639031394,51.5258023,-0.0775261,Coffee Shop,Shoreditch High Street,E1 6JQ,
3639233623,51.5261879,-0.0781517,Present,Shoreditch High Street,E1 6JE,
3639334560,51.5507226,-0.1095192,Rindo,Holloway Road,,
3639334564,51.5463974,-0.1040351,Black Sheep Coffee,,,Black Sheep Coffee
3639334565,51.5488356,-0.1071923,The Barn,Holloway Road,N7 8JL,
3639437915,51.4814611,0.0442726,Olli's,Charlton Park Road,SE7 8UB,
3641374762,51.4569069,0.009144,With Jam And Bread,Lee High Road,,
3641482937,51.4129651,-0.3014397,Take a Sip,,,
3648083067,51.5706886,-0.1164631,Max's Sandwhich Shop,Crouch Hill,N4 4AP,
3648083068,51.5706971,-0.1165449,Emy's Kitchen,Crouch Hill,,
3648101631,51.5591345,-0.1210942,Unknown,,,
3650913567,51.5128474,-0.137915,Joe & The Juice,,,Joe & The Juice
3655366838,51.5261491,-0.0679494,Fuckoffee,Bethnal Green Road,E2 6AB,
3656092750,51.5223134,-0.0973597,h.o.m.e,Goswell Road,EC1M 7AA,
3661150002,51.5257214,-0.1793645,Caffè Nero,Clifton Road,,Caffè Nero
3662201104,51.4768365,-0.202479,Pottery Cafe,Fulham Road,SW6 5UL,
3662201105,51.4770442,-0.2019237,Riderepublic & Tanya's,,,
3667302483,51.461051,-0.1670343,2Love Tea & Coffee House,St John’s Road,SW11 1QY,
3682461821,51.453958,-0.1204733,F Mondays,,,
3687948888,51.512861,-0.1272697,Timber Yard,,,
3688619643,51.4958566,-0.1446922,Starbucks,,,Starbucks
3693706314,51.5805534,-0.1246177,Rosemary,Park Road,N8 8TD,
3699804423,51.4690871,-0.1861725,Cafe Lina,Townmead Road,SW6 2SG,
3700266808,51.5346189,-0.1740023,Helterskelter,Finchley Road,NW8 6EB,
3702122894,51.5444728,-0.175389,Pasticcio,Northways Parade,,
3702964040,51.5165427,-0.0836288,Birley,Old Broad Street,EC2M 1JB,
3708230630,51.5145912,-0.0805473,Notes,St. Mary Axe,EC3A 8BF,Notes
3709926914,51.5967102,-0.130425,Lakeside Cafe,,,
3712155727,51.4970582,-0.1336793,Blanche Eatery,Strutton Ground,SW1P 2HY,
3722077059,51.5290177,-0.0179536,Nunnery Café,Bow Road,E3 2SJ,
3723004732,51.431004,-0.1023245,Book and Record Bar,Norwood High Street,SE27 9NR,
3730488619,51.4935069,-0.1739993,Unknown,,,
3734465133,51.502226,-0.0953577,munchies,Marshalsea Road,SE1 1HF,
3741565026,51.5124359,-0.1190058,Caffe Fratelli,,,
3751773924,51.536142,-0.0624184,Katsute100,Broadway Market Mews,,
3757102945,51.4836262,-0.3286086,Heisenberg Coffee Co,,,
3757102946,51.4836051,-0.3285267,Munchy's Cafe,,,
3758668681,51.478269,-0.2792393,Costa,Bessant Drive,TW9 4AA,Costa
3760417183,51.4248876,-0.1635663,MUD,Mitcham Road,SW17 9PE,
3761471456,51.5481584,-0.0875993,Gallo Nero,Newington Green Road,N1 4QT,
3761472263,51.5487404,-0.0876151,Flamingo,Newington Green Road,N1 4QU,
3761479204,51.5495409,-0.0872613,Principles Coffee House,Newington Green Road,N1 4QX,
3761643196,51.5620318,-0.079786,Green Room Cafe,Stoke Newington Church Street,N16 0UD,
3761652193,51.5620552,-0.0787398,The Good Egg,Stoke Newington Church Street,N16 0AS,
3761678065,51.562302,-0.0785064,Trattoria da Luigi,Stoke Newington Church Street,N16 0AP,
3761737521,51.5620701,-0.0741478,La Duchesse,Stoke Newington Church Street,N16 0LU,
3761984346,51.4973478,-0.1724658,Victoria & Albert Cafe,,,
3764241096,51.578657,-0.3371282,Arc House Cafe,Lowlands Road,HA1 3AN,
3765014126,51.52351,-0.0839073,Café Z,Scrutton Street,EC2A 4HJ,
3766479965,51.5266044,-0.1321457,Quaker Centre Cafe,,,
3767628457,51.5144655,-0.1669475,Le Pain Quotidien,Kendal Street,W2 2AW,Le Pain Quotidien
3770551170,51.5012257,-0.2317235,Eshta Dessert Lounge,Goldhawk Road,W12 8EN,
3770604157,51.5020287,-0.2293443,Bertotti Pure Italian,Goldhawk Road,W12 8HD,
3772036173,51.5025194,-0.2251048,Gilass Cafe,Goldhawk Road,W12 8QP,
3778592909,51.6666747,-0.1484495,Ferny Hill Tea Rooms,Ferny Hill,EN4 0PZ,
3782252278,51.5063274,-0.2387438,Mar Mar Cafe,Uxbridge Road,W12 9RA,
3782253770,51.5063261,-0.2386591,Maison Delice,Uxbridge Road,W12 9RA,
3782616217,51.4094587,-0.306028,Costa,Market Place,KT1 1JH,Costa
3786009856,51.4429655,-0.1495532,Esquires Coffee,Bedford Hill,SW12 9HA,
3790321657,51.4978022,-0.2223206,Adam's Café,Shepherds Bush Road,,
3793532460,51.4918625,-0.223933,Costa,Broadway Shopping Centre,,Costa
3793976707,51.4772377,-0.1460268,Phota Vietnamese Street Food,Battersea Park Road,SW8 4BX,
3796216966,51.4631141,-0.1702088,Stormzzy's,,,
3796265635,51.481548,-0.0923284,The Tennis Café,,,
3800998362,51.5827693,-0.0193616,Costa,Station Approach,E17 9QF,
3804311307,51.5167153,-0.125929,Wuxian Tea,,,
3805607038,51.4950773,-0.2258279,Caffe Kix,,,
3811092605,51.5175015,-0.0738484,Trade,Commercial Street,E1 6BD,
3811097649,51.5331102,-0.1251194,Notes,Pancras Square,N1C 4AG,Notes
3811606800,51.5709057,-0.0964555,Park View Cafe,,,
3813311360,51.520853,-0.1030579,Bench,Britton Street,EC1M 5AD,
3822812080,51.5168792,-0.137156,Kaffeine,Eastcastle Street,W1T 3AY,
3823146235,51.4684073,-0.1902185,Archie's Kitchen,,,
3827161416,51.515425,-0.119303,Sontag,,,
3831795563,51.5292489,-0.0560721,Wild Bean Cafe,Cambridge Heath Road,E2 9LH,Wild Bean Cafe
3835357179,51.5052916,-0.0213438,Ca'puccino,Cabot Square,E14 4QT,
3835357212,51.5046758,-0.0217818,Black Sheep Coffee,South Colonnade,E14 4PZ,Black Sheep Coffee
3838023415,51.5356125,-0.1250572,Yumchaa,,,
3841574294,51.5417579,-0.1803416,Liten,,,
3855655369,51.5353034,-0.1334465,Tobia Cafe,,,
3857691547,51.5185427,-0.1787135,Costa,Praed Street,,Costa
3865853876,51.5908128,-0.1024554,Harvest Cafe,,,
3874311762,51.602256,-0.1921034,Costa,Ballards Lane,N3 2BJ,Costa
3889564461,51.5395374,-0.3088374,The Lunch Box,,,
3889758753,51.4479482,-0.0409157,Big Plate Cafe,Brockley Rise,SE23 1LN,
3890874643,51.4746353,-0.0407953,La Boulangerie,New Cross Road,SE14 5PL,
3891083129,51.4569494,-0.019611,The Village Café,Algernon Road,SE13 7AG,
3891083155,51.4565007,-0.0197779,Le Délice,Ladywell Road,SE13 7UZ,
3891094502,51.449999,-0.0001584,Gordes,,,
3892498691,51.4423584,-0.0339678,Johnnies 2 Café,,,
3895318526,51.5421469,-0.3463902,MiMar Cafe,Oldfield Lane North,UB6 8PX,
3914624973,51.558723,-0.2819915,Starbucks,,,Starbucks
3919479120,51.5060416,-0.0278935,Brera,Westferry Circus,E14 8RR,
3932136286,51.4925814,0.0706419,Boulangerie Jade,Major Draper Street,SE18 6GD,
3958734785,51.4644364,-0.1703016,Digby's,,,
3958734786,51.4642908,-0.1699182,Up Caffe Bar,,,
3961316848,51.5439488,-0.1004227,Unknown,,,
3973541459,51.5193918,-0.0631475,Souk Mediterranean,Vallance Road,E1 5HR,
3978235771,51.569001,-0.1108665,Blossom White,,,
3979686316,51.5598718,-0.1148806,Zara Cafe,Hornsey Road,,
3985644392,51.5242915,-0.099328,Sun Cafe,Goswell Road,EC1V 7EN,
4001517225,51.5614625,-0.0992463,Cafe Latte,Blackstock Road,N4 2JS,
4001518666,51.5639028,-0.105252,Venezia,,,
4005692200,51.5655812,-0.1082105,Frame Cafe & Bar,Clifton Terrace,N4 3JP,
4005692201,51.565336,-0.1079167,Starbucks,Wells Terrace,N4 3JU,Starbucks
4029722724,51.4788229,-0.1189311,C. M. Cafe,Dorset Road,,
4042751088,51.5162117,0.0086452,Oliver's Cafe,Barking Road,E16 4HB,
4042751192,51.5164373,0.0098967,The Milk Tree,Barking Road,E16 1EQ,
4056131599,51.5275599,-0.1245956,Thenga,Cromer Street,WC1H 8BS,
4056807329,51.5146055,-0.1619677,Snowflake Gelato,Edgware Road,W2 2EH,
4063564722,51.4661466,-0.1507049,Caffè Nero,Lavender Hill,SW11 5QW,Caffè Nero
4076126439,51.5164788,-0.1034052,Starbucks Coffee,Fleet Place,EC4M 7RA,Starbucks
4079164579,51.4667349,-0.1477806,The Roastery,Wandsworth Road,SW8 3JQ,
4080718950,51.5117524,-0.0563553,Cafe Marrone,Watney Street,E1 2QD,
4081574319,51.6022582,-0.0672423,Unknown,,,
4083088889,51.4790272,-0.0081505,The Orangery at the Fan Museum,Crooms Hill,SE10 8ER,
4084848390,51.440221,-0.0017249,Caravello Coffee Shop,Torridon Road,SE6 1RG,
4084848392,51.4423373,0.0036036,Mitros Cafe,,,
4084848394,51.4472502,-0.0180926,Costa,Rushey Green,SE6 4AF,Costa
4086136674,51.5186195,-0.0835089,Grind,Broadgate Circle,EC2M 2QS,Grind
4099966085,51.5069774,-0.1334502,Cafe Spreads,Pall Mall,SW1Y 5LU,
4103049892,51.5152041,-0.1499837,Workshop Coffee Co,Barrett Street,,
4106677413,51.533883,-0.1713786,Starbucks,St John's Wood High Street,NW8 7NL,Starbucks
4107025655,51.5769304,-0.0300592,Enjoy Sandwich & Cafe Bar,Markhouse Road,,
4108513798,51.5768939,-0.0297235,Jimmy's Cafe,Markhouse Road,E17 8DQ,
4109351789,51.4922993,-0.1933584,Caffè Nero,Earl's Court Road,,Caffè Nero
4114274724,51.4349546,-0.197049,Arthur,Arthur Road,SW19 8AQ,
4114291473,51.5182902,-0.120927,Onion Cafe,,,
4118414598,51.5176046,-0.0808728,Costa,,,Costa
4121357229,51.4417338,-0.1540324,Jefferson's Balham,Balham High Road,SW12 9BE,
4122122489,51.5351595,-0.1034742,Kipferl Cafe & Kitchen,Camden Passage,N1 8ED,
4145328679,51.5417938,-0.146116,Cafe Loren,,NW1 8AH,
4145328680,51.5423064,-0.1482268,Basement Tea Rooms,Chalk Farm Road,NW1 8AH,
4156455196,51.5306775,-0.125789,Blank Street Coffee,Pancras Road,N1C 4QP,Blank Street Coffee
4159001516,51.4211459,-0.2066883,Mamma Mia,Wimbledon Bridge,SW19 7NL,
4161767349,51.4150599,-0.3664855,Chino's Cafe,Station Road,TW12 2AX,
4162881263,51.5351087,-0.032807,Old Ford Cafe,Old Ford Road,E3 5JP,
4165911066,51.4112761,-0.0656721,Rosie Lee's,Anerley Road,,
4167409327,51.50719,-0.0712368,White Mulberries,East Smithfield,E1W 1AT,
4167450912,51.5072075,-0.0715899,St Katharine Docks Cafe,East Smithfield,E1W 1AT,
4170119992,51.5329285,0.0753282,Galleon,Abbey Road,IG11 7BT,
4171757331,51.5071786,-0.1396554,Cafe Murano,St James's Street,SW1A 1HD,
4171866105,51.5312447,-0.1248121,Hermanos Colombian Coffee Roasters,,,Hermanos Colombian Coffee Roasters
4184410799,51.4992368,-0.1838555,Sakurado London,Gloucester Road,,
4185611903,51.5199496,-0.1095201,Prufrock Coffee,Leather Lane,EC1N 7TE,
4187406976,51.5785697,-0.09916,Costa,Green Lanes,N4 1EY,Costa
4194381991,51.520283,-0.1223833,Caffè Nero,,,Caffè Nero
4194381992,51.5203762,-0.1224836,Costa,Southampton Row,WC1B 4BL,Costa
4195131397,51.474269,-0.1827818,Harris + Hoole,Townmead Road,SW6 2FG,Harris + Hoole
4197010851,51.4702132,-0.1127107,Look Mum No Hands,,,
4197416294,51.6548892,-0.2015358,Caffè Nero,High Street,EN5 5XQ,Caffè Nero
4198423618,51.6482928,-0.0594007,Unknown,,,
4198425942,51.6072934,-0.021431,Morrisons Cafe,Chingford Road,E4 8SN,
4198444745,51.5966593,-0.1098393,Morrisons Cafe,High Road,N22 6SU,Morrisons
4201931262,51.4707227,-0.1703603,Doppio Coffee,Battersea Park Road,SW11 3BY,
4205128646,51.5469211,-0.485578,Rusty Bike,,,
4209732964,51.5139968,-0.0749161,Oasis Coffee,Aldgate High Street,EC3N 1BD,
4210776240,51.4856717,-0.1816968,Le Pain Quotidien,Fulham Road,,Le Pain Quotidien
4210776247,51.4851981,-0.1825142,B Bagel Bakery Bar,Fulham Road,SW10 9NB,
4213677152,51.591413,-0.1334726,Alexandra Palace Garden Centre Cafe,,,
4213916300,51.582266,-0.1269092,Cafe Memz,Park Road,N8 8JN,
4214652420,51.5654148,-0.1080081,The Terrace,Clifton Terrace,,
4219468293,51.4177788,-0.058761,Pretty Little Cupcakes,High Street,SE20 7HJ,
4219468295,51.4177433,-0.058633,Pride Of Venice,High Street,SE20 7HJ,
4219535615,51.4173719,-0.0575477,Naka Cafe,High Street,SE20 7HW,
4221687835,51.4151273,-0.0546011,Mable Cafe,Maple Road,SE20 8JB,
4221687838,51.4148274,-0.0549008,Maple Cafe,Maple Road,,
4221818849,51.4135518,-0.0518146,Tudor Rose,High Street,SE20 7TN,
4223601266,51.415674,-0.0530726,Penge Cafe,Southey Street,,
4226590394,51.5319946,-0.1074804,L'Angelo,Pentonville Road,,
4226590396,51.5320355,-0.1076117,Saint Espresso,Pentonville Road,N1 9HJ,Saint Espresso
4227764089,51.5276612,-0.123561,Casa Tua,Cromer Street,WC1H 8BZ,
4232480409,51.4927859,-0.2253919,Caffè Nero,,,Caffè Nero
4237228443,51.4805421,-0.1112922,Conuco,Brixton Road,SW9 6BU,
4237856433,51.4870752,-0.1111444,Sally White,Kennington Road,SE11 4QE,
4237984101,51.5173212,-0.0629881,Munch Movement Cafe,Fieldgate Street,E1 1JU,
4237984103,51.5172824,-0.063308,Gusta Coffee,Fieldgate Street,E1 1JU,
4238456905,51.5194688,-0.1317326,26 Food & Drink,,,
4245066154,51.4029624,-0.2946796,The Chip Club,Villiers Road,KT1 3BB,
4247345640,51.5128672,-0.056634,Cafe Rosh,Watney Street,E1 2QE,
4247368018,51.5112029,-0.0566541,Querky Cafe,Watney Street,E1 2QE,
4254834845,51.4633047,-0.3016509,Knot,Kew Road,TW9 2NA,
4254853935,51.4582752,-0.3053457,Costa,,,Costa
4256715498,51.5211337,0.0397162,Deli-Marche,,,
4260079401,51.5146786,-0.0998232,Birley,Paternoster Square,EC4M 7DX,
4260761280,51.5334616,-0.1213813,Quad Cafe,,,
4261710962,51.4870951,-0.1116716,Urban Botanica,Windmill Row,,
4264893241,51.4929049,-0.1106497,The Kennington Coffee Shop,Kennington Road,SE11 6SR,
4265660963,51.5454285,-0.4778061,Caffè Nero,,,Caffè Nero
4265710902,51.4884967,-0.3960488,Costa,,TW5 9NB,Costa
4270686796,51.5237697,-0.1438102,Black Sheep Coffee,Euston Road,W1W 5PW,Black Sheep Coffee
4270686797,51.5238131,-0.1438477,Padi Kitchen,,,
4270686799,51.5275077,-0.1345002,Caffè Nero,Eversholt Street,NW1 2DU,Caffè Nero
4274476000,51.4858359,-0.3217152,Cafe Society,,,
4275158055,51.4991901,-0.1750273,College Café,,,
4278671706,51.4994525,-0.1337101,Caffe Grana,,SW1H 0BB,
4286050642,51.5580575,-0.1201989,Rabbit Hole,Holloway Road,,
4296598208,51.6130612,-0.1575437,Harmony Café,Friern Barnet Road,N11 3DA,
4296612955,51.6129833,-0.1578669,Unique,Queens Parade,,
4298821995,51.5317932,-0.0265748,Garden Green Cafe,Tredegar Road,E3 2EU,
4305696777,51.4649522,-0.1582688,Lagu,Lavender Hill,SW11 5QJ,
4305833704,51.5818872,-0.1576841,Aroma Cafe,,,
4305954277,51.5047282,-0.0173432,Protein Haus,Canada Square,E14 5AH,
4306074535,51.4654092,-0.1560398,Costa,Lavender Hill,SW11 5QL,Costa
4307516946,51.592402,-0.382323,Indulge,Marsh Road,HA5 5NE,
4307623429,51.5182371,-0.0610617,Eat Well,Whitechapel Road,E1 1FR,
4307623430,51.5178065,-0.060587,Beigal Bunnies,Turner Street,E1 2AD,
4308455491,51.4943579,-0.1460369,Caffè Nero,Buckingham Palace Road,SW1W 9SJ,Caffè Nero
4313560319,51.543469,0.0050491,Morrisons Cafe,The Grove,E15 1EN,Morrisons
4313581507,51.5080934,-0.2723361,Morrisons Cafe,,,Morrisons
4313588507,51.5935276,-0.2598224,Unknown,,,
4313593637,51.3607285,-0.1927107,Morrisons Cafe,,,Morrisons
4313605768,51.5596059,0.1485976,Morrisons Cafe,,,Morrisons
4313610853,51.4626396,0.1095554,Unknown,,,
4315955090,51.5061672,-0.1042465,CoffeeWorks project,,,
4316313555,51.4660258,-0.1698945,Platform 1 Cafe,,,
4317261683,51.463121,-0.302557,Brunch & Brew,The Quadrant,TW9 1DL,Barnard Marcus
4317261794,51.4631879,-0.3024644,Black Sheep Coffee,Kew Road,TW9 2NQ,Black Sheep Coffee
4317591471,51.4585478,-0.3055591,Hagen,Hill Street,TW9 1TW,
4317971897,51.4099859,-0.2237888,Kings Cafe,Kingston Road,SW20 8DR,
4318369465,51.4611965,-0.3003843,GAIL's,Sheen Road,TW9 1AS,GAIL's Bakery
4318369469,51.4612402,-0.3008714,Cafe Milano,Sheen Road,TW9 1AS,
4321358785,51.5413516,-0.1462821,Lantana Café,"Middle Yard, Camden Lock Place",NW1 8AF,
4322115494,51.3930817,-0.0936105,Double Egg Café,Whitehorse Road,CR0 2LE,
4324478924,51.5115792,-0.056453,DeLites,Watney Street,E1 2QE,
4325026189,51.5148966,-0.1579671,Daisy Green,Seymour Street,,
4326052223,51.509065,-0.0784681,Costa,Tower Hill Terrace,EC3N 4EE,Costa
4327351744,51.4925702,-0.193058,Chun Fun How,Hogarth Place,,
4327621215,51.5164921,-0.1771435,Caffè Nero,,,Caffè Nero
4327900878,51.5236088,-0.1439145,Istanbul Cafe & Bistro,Great Portland Street,W1W 5PW,
4327903409,51.5841826,-0.1770327,Lyttle Cafe Gaya,,,
4329814893,51.4722972,-0.1993946,Peterborough Café,Peterborough Road,SW6 3BN,
4329962743,51.5082124,-0.1248521,Nero Express,,,Caffè Nero
4333851289,51.5176333,-0.0817231,Benugo,Liverpool Street,EC2M 7QN,
4335717804,51.5102118,-0.1336568,Simit Sarayi,Piccadilly Circus,W1J 0DA,
4338151647,51.4877819,-0.1235472,Cafe 89,,,
4338152211,51.5040927,-0.1090809,Starbucks,,,Starbucks
4338172247,51.3734078,0.0893039,Puccino's,,,
4338180999,51.3732028,0.0886888,Puccino's,,,
4340235299,51.5332893,0.0366081,Bad Boyz Diner,Green Street,E13 9AX,
4340235309,51.5326067,0.0366823,Lounge 488,Green Street,E13 9DB,
4341801185,51.5003701,-0.1107859,Tea Talk,Baylis Road,,
4344559758,51.5091655,-0.0612089,Wild Bean Cafe,The Highway,E1W 2BX,Wild Bean Cafe
4345137643,51.4724185,-0.1227185,Costa,,,
4346163716,51.4940048,-0.0616143,Unknown,,,
4346355394,51.4710491,-0.1245611,Blue Nile Cafe,,,
4346373063,51.4704524,-0.1249837,Cantinho do Goias,,,
4347080392,51.5782467,-0.2400997,Simple Treats,West Hendon Broadway,,
4347898875,51.4638549,-0.1328073,Cafe Sol Dos,,,
4354635489,51.5228415,-0.0929096,Unknown,Whitecross Street,,
4359090289,51.5202068,-0.0713826,The Canvas Cafe,Hanbury Street,E1 5JL,
4360084693,51.5029111,-0.0718143,Blue Print Café,Shad Thames,SE1 2YD,
4360230743,51.4676337,-0.1867833,Unknown,,,
4360622772,51.5844939,-0.1003538,Jam in a Jar,Green Lanes,N8 0RE,
4360622775,51.5873128,-0.1007766,Plovdiv,Wordsworth Parade,N8 0SJ,
4362067192,51.5535684,-0.0981642,Rendezvous,,,
4362067195,51.5533603,-0.0985524,Pia's,,,
4362182880,51.5182793,-0.2185526,Adriana's Café & Eatery,St Helens Gardens,,
4362474890,51.5038989,-0.1067472,Bankside Cafe,Hatfields,SE1 8DQ,
4376163244,51.5327695,-0.0986764,Galata,,N1 8PZ,
4381900289,51.6095768,0.0213774,Deli on the green,,,
4381900290,51.6078831,0.0334295,Belgique,The Broadway,IG8 0HL,
4381900389,51.6075923,0.033353,Costa,The Broadway,IG8 0HL,Costa
4393353454,51.5611329,0.1630005,Unknown,,,
4404156377,51.4835934,-0.200889,Jaffa Bake House,North End Road,SW6 1NP,
4405427689,51.376015,-0.1026448,Starbucks,North End,CR0 1TY,Starbucks
4405653400,51.5255661,-0.0789848,White Rabbit Cafe,,,
4407933774,51.5423152,-0.0211844,The Milk Float,White Post Lane,E9 5EN,
4408274888,51.5467556,-0.0122633,Signorelli,Victory Parade,E20 1FS,
4408377026,51.4985738,-0.1628714,Ladurée at Harrods,,,
4411107895,51.4969272,-0.1308181,Rag & Bone Coffee Co.,Great Peter Street,,
4412135646,51.6430587,-0.0969484,Coffee at the Grange,,,
4412447225,51.4798581,0.1844451,Morrisons Cafe,,,Morrisons
4412459694,51.4248251,0.1023826,Morrisons Cafe,,,Morrisons
4412459695,51.5079496,0.1052561,Morrisons Cafe,,,Morrisons
4415972435,51.4878939,-0.2221819,Half Moon Cafe,,,
4418617414,51.4806185,-0.1978252,Becky Blooms,Jerdan Place,SW6 1BE,
4420467413,51.522885,-0.1147155,Hopper Coffee,,,
4422754931,51.5175477,-0.0773066,Into Cafe,Middlesex Street,E1 7EZ,
4427675896,51.4663839,-0.1507255,Sendero Coffee,Victoria Rise,SW4 0PF,
4428611560,51.5136823,-0.0877795,Royal Exchange Grind,Royal Exchange,EC3V 3LP,
4437531398,51.571221,-0.0899396,Zer Cafe and Juice Bar,Goodchild Road,N4 2LY,
4440565062,51.541495,-0.1455538,Café de Nata,Chalk Farm Road,NW1 8AB,Café de Nata
4452603364,51.506607,-0.0885343,London Grind,London Bridge,SE1 9RA,
4452607091,51.5078364,-0.1003939,Corner Cafe,Bankside,SE1 9TG,
4453745990,51.5147931,-0.1760115,Caffè Nero,Spring Street,W2 3RA,Caffè Nero
4457290491,51.5525919,-0.1119713,Gonuts Boba Tea,,,
4457290497,51.5526253,-0.1120038,eroma cafe,Holloway Road,N7 8DA,
4460150489,51.5018065,-0.0923829,Mouse Tail Coffee,Borough High Street,SE1 1JA,
4460580389,51.4436287,-0.1533183,Chicken Shop & Dirtyburger,Chestnut Grove,,
4464561481,51.6135216,-0.1098894,Orange Cafe,Green Lanes,N13 4UH,
4468593279,51.5104802,-0.1267328,Ellamia,St. Martin's Lane,,
4471699484,51.4747329,-0.1323102,Andalucia Cafe & Patisserie,Wandsworth Road,SW8 2JJ,
4471792134,51.395333,0.1403071,Naturist Foundation - Tea Pot Cafe,Sheepcote Lane,BR5 4ET,
4474224992,51.4964172,-0.1347428,Cafe Fresco,Greycoat Place,SW1P 1SB,
4475094847,51.4551779,-0.3203512,Nemo's Cafe,St Margarets Road,TW1 2LH,
4475134598,51.5123372,-0.1455559,Everbean Cafe,Avery Row,W1K 4BB,
4475930889,51.5175669,-0.131909,Waterstone's Bookstore Cafe,Tottenham Court Road,W1T 1BJ,
4481700736,51.5181547,-0.0594462,Eat Well,Whitechapel Road,E1 1BB,
4481700745,51.5189675,-0.0589232,Cafe Leads,East Mount Street,E1 1BA,
4488489852,51.5248318,-0.1760985,D1 Coffee,Aberdeen Place,,
4490691137,51.5475284,-0.0561955,Costa,Amhurst Road,E8 1LL,Costa
4500606584,51.5155699,-0.0909161,Bacari,Basinghall Street,EC2V 5BQ,
4500620450,51.5149983,-0.0905988,Costa,Gresham Street,EC2V 7NG,Costa
4501136325,51.5191629,-0.0895783,Notes,Ropemaker Street,EC2Y 9AW,Notes
4502566325,51.4985936,-0.3056868,Town Bikes Cafe,South Ealing Road,,
4504408426,51.515953,-0.0877494,Costa,Copthall Avenue,EC2R 7DA,Costa
4504981949,51.6021535,-0.0513795,Mario's Cafe,Garman Road,N17 0YU,
4506509266,51.500879,-0.0933924,Starbucks,Borough High Street,SE1 1JD,Starbucks
4506528652,51.4620649,-0.1381188,Starbucks,,,Starbucks
4513208342,51.5172116,-0.0873822,Bagelmania,London Wall,EC2M 5QD,
4519912166,51.5196543,-0.0893372,Costa,Ropemaker Street,EC2Y 9AW,Costa
4524941599,51.5531271,-0.0254259,Cafè on the Marshes,Homerton Road,E9 5PF,
4526375181,51.4618563,-0.138815,Lane Eight Coffee,,,
4526375182,51.4617792,-0.1384328,Joe Public,,,
4527219250,51.4706965,-0.4429419,Caffè Nero,,,Caffè Nero
4535875056,51.5355665,-0.0886864,Bobo & Wild,,,
4539458303,51.5540963,-0.0982971,Highness Café & Tea Room,,,
4549305942,51.4949689,-0.1272436,Gianni's,Horseferry Road,SW1P 2AF,
4549529629,51.5852286,-0.0193186,Today Bread,Hoe Street,E17 4RT,
4552178626,51.4955289,-0.1368326,Casa María,Greencoat Row,SW1P 1PG,
4559429891,51.5109978,-0.0800148,Chop'd,Mark Lane,EC3R 7NQ,
4559430147,51.5111047,-0.0796233,Honi Poke,New London Street,EC3R 7NA,
4559533563,51.582787,-0.0191523,Incoming Coffee,Station Approach,E17 9GY,
4560464779,51.5500052,0.0053987,Blue River Cafe,Leytonstone Road,E15 1TQ,
4560491378,51.5348298,-0.2194304,Cable co.,Chamberlayne Road,,
4564372690,51.4933917,-0.0987959,La Chatica,Elephant Road,SE17 1LB,
4564898432,51.4609599,-0.1666358,Fresh Ground Coffee House,,,
4568715443,51.4639879,-0.1665306,Jack's at the Junction,Lavender Hill,SW11 1LJ,
4568715448,51.4638033,-0.1657754,2 Love,,,
4568748346,51.4200308,-0.2048565,Patisserie Valerie,The Broadway,SW19 1QB,Patisserie Valerie
4569700106,51.514545,-0.1042484,Crussh,Farringdon Street,EC4M 7LH,
4572687780,51.5840421,-0.0082525,The Rolling Scones Cafe,Shernhall Street,E17 9HQ,
4585490422,51.51745,-0.111948,Black Sheep Coffee,Southampton Buildings,WC2A 1PN,Black Sheep Coffee
4589889289,51.5324858,-0.1692668,England's Grace,St John's Wood High Street,,
4593644276,51.564276,-0.1316428,Phyllo Bakehouse,Holloway Road,,
4596888419,51.4944423,0.0133966,Café Pura,West Parkside,SE10 0BA,
4602214191,51.5043298,-0.0210018,Grateful Kitchen,Chancellor Passage,E14 4PA,
4602945982,51.5423467,0.0045534,Ibis - Cafe Point,Romford Road,E15 4LJ,
4602946097,51.5383541,-0.0011741,Dolce Vita,High Street,E15 4QZ,
4603408818,51.642995,-0.1623662,at Sophie's,Cat Hill,,
4604724957,51.547621,0.0056847,Bromley Cafe,Leytonstone Road,E15 1JA,
4607846848,51.5912398,-0.1039766,Rosten,High Road,N22 6BX,
4608144332,51.5458955,-0.0542598,Dilara's Cafe,Morning Lane,E9 6NA,
4608735030,51.5367504,-0.0003649,The Grand,Cam Road,E15 2SN,
4608735031,51.5354424,-0.0005084,Sodexo Ltd,Burford Road,E15 2SP,
4608735078,51.5400712,-0.011167,Street & Co Cafe,,E20 2AQ,
4609797692,51.5403798,0.0011265,Stratford Best Coffee / Meze & Grill,Broadway,E15 4BQ,
4616981789,51.5109761,-0.1452135,Leica Coffee Shop,Bruton Place,,
4617068609,51.4019938,-0.1940168,La Lavella,London Road,SM4 5HT,
4621862206,51.5109844,-0.0874537,Rosslyn,Cannon Street,EC4N 6AS,
4635923534,51.4594436,-0.1245598,Sam's Cafe,Acre Lane,,
